[
    {
        "serialnumber": "",
        "name": "福容大飯店 桃園",
        "address": "桃園市桃園區同安里大興西路一段200號",
        "phone": "(03)3265800#300",
        "latitude": "25.013866",
        "longitude": "121.303228",
        "note": "銀級環保旅館",
        "county": "桃園市",
        "town": "桃園區",
        "village": "同安里"
    },
    {
        "serialnumber": "",
        "name": "台南遠東香格里拉",
        "address": "臺南市東區大學路西段89號",
        "phone": "(06)7028888#6903",
        "latitude": "23.001702",
        "longitude": "120.214197",
        "note": "銅級環保旅館",
        "county": "臺南市",
        "town": "東區",
        "village": "-"
    },
    {
        "serialnumber": "",
        "name": "福容大飯店 桃園機場捷運 A8",
        "address": "桃園市龜山區復興一路2號3樓",
        "phone": "(03)3285688#8770",
        "latitude": "25.060283",
        "longitude": "121.369611",
        "note": "銀級環保旅館",
        "county": "桃園市",
        "town": "龜山區",
        "village": "-"
    },
    {
        "serialnumber": "",
        "name": "榮興金鬱金香酒店",
        "address": "臺南市中西區民族路二段128號",
        "phone": "(06)2200800#6006",
        "latitude": "22.996368",
        "longitude": "120.205715",
        "note": "銅級環保旅館",
        "county": "臺南市",
        "town": "中西區",
        "village": "-"
    },
    {
        "serialnumber": "",
        "name": "榮美金鬱金香酒店",
        "address": "臺南市北區海安路三段50號",
        "phone": "(06)2200800#6001",
        "latitude": "23.001966",
        "longitude": "120.200205",
        "note": "銀級環保旅館",
        "county": "臺南市",
        "town": "北區",
        "village": "-"
    },
    {
        "serialnumber": "",
        "name": "煙波大飯店宜蘭館",
        "address": "宜蘭縣宜蘭市凱旋路135號、135號2至9樓",
        "phone": "039256899",
        "latitude": "24.72571685",
        "longitude": "121.7627651",
        "note": "金級環保旅館",
        "county": "宜蘭縣",
        "town": "宜蘭市",
        "village": "-"
    },
    {
        "serialnumber": "",
        "name": "煙波大飯店蘇澳館",
        "address": "宜蘭縣蘇澳鎮中正路38號,中正路38號2樓至12樓",
        "phone": "50009965000",
        "latitude": "24.59797426",
        "longitude": "121.8532759",
        "note": "金級環保旅館",
        "county": "宜蘭縣",
        "town": "蘇澳鎮",
        "village": "-"
    },
    {
        "serialnumber": "",
        "name": "觀霧山莊",
        "address": "苗栗縣泰安鄉梅園村觀霧8號",
        "phone": "(03) 334-3818",
        "latitude": "24.50358651",
        "longitude": "121.11438",
        "note": "銀級環保旅館",
        "county": "苗栗縣",
        "town": "泰安鄉",
        "village": "-"
    },
    {
        "serialnumber": "",
        "name": "福壽山農場",
        "address": "臺中市和平區福壽路29號",
        "phone": "0425989202",
        "latitude": "24.249477",
        "longitude": "121.246189",
        "note": "銀級環保旅館",
        "county": "臺中市",
        "town": "和平區",
        "village": "-"
    },
    {
        "serialnumber": "",
        "name": "國州大旅社",
        "address": "臺北市文山區羅斯福路四段208號1至2樓",
        "phone": "",
        "latitude": "25.010682",
        "longitude": "121.537033",
        "note": "銅級環保旅館",
        "county": "臺北市",
        "town": "文山區",
        "village": "-"
    },
    {
        "serialnumber": "",
        "name": "正好友生態環保旅店",
        "address": "屏東縣琉球鄉中山路153號",
        "phone": "088612270",
        "latitude": "22.352134",
        "longitude": "120.38187",
        "note": "銀級環保旅館",
        "county": "屏東縣",
        "town": "琉球鄉",
        "village": "-"
    },
    {
        "serialnumber": "",
        "name": "林園氛圍民宿",
        "address": "臺東縣台東市樂利路52巷16號",
        "phone": "0939519772",
        "latitude": "22.797483",
        "longitude": "121.128249",
        "note": "銅級環保旅館",
        "county": "臺東縣",
        "town": "台東市",
        "village": "-"
    },
    {
        "serialnumber": "",
        "name": "小北歐民宿",
        "address": "臺東縣台東市新站二街36號",
        "phone": "0988968608",
        "latitude": "22.789702",
        "longitude": "121.125706",
        "note": "銅級環保旅館",
        "county": "臺東縣",
        "town": "台東市",
        "village": "-"
    },
    {
        "serialnumber": "",
        "name": "小馬民宿",
        "address": "臺東縣台東市興安路一段97號",
        "phone": "0963198980",
        "latitude": "22.788104",
        "longitude": "121.127509",
        "note": "銅級環保旅館",
        "county": "臺東縣",
        "town": "台東市",
        "village": "-"
    },
    {
        "serialnumber": "",
        "name": "清境國民賓館",
        "address": "南投縣仁愛鄉定遠新村25號",
        "phone": "27482802774",
        "latitude": "24.042263",
        "longitude": "121.155409",
        "note": "銀級環保旅館",
        "county": "南投縣",
        "town": "仁愛鄉",
        "village": "-"
    },
    {
        "serialnumber": "",
        "name": "板橋凱撒大飯店",
        "address": "新北市板橋區縣民大道二段8號",
        "phone": "0229583000",
        "latitude": "25.011719",
        "longitude": "121.462722",
        "note": "金級環保旅館",
        "county": "新北市",
        "town": "板橋區",
        "village": "-"
    },
    {
        "serialnumber": "",
        "name": "雅霖大飯店",
        "address": "澎湖縣馬公市同和路100號",
        "phone": "069261366",
        "latitude": "23.568485",
        "longitude": "119.57372",
        "note": "銅級環保旅館",
        "county": "澎湖縣",
        "town": "馬公市",
        "village": "-"
    },
    {
        "serialnumber": "",
        "name": "小陳故事古厝民宿",
        "address": "金門縣金城鎮前水頭3號",
        "phone": "0935875776",
        "latitude": "24.408732",
        "longitude": "118.300948",
        "note": "銅級環保旅館",
        "county": "金門縣",
        "town": "金城鎮",
        "village": "-"
    },
    {
        "serialnumber": "",
        "name": "幸福蝸牛民宿",
        "address": "宜蘭縣五結鄉利澤西路6號",
        "phone": "039500047",
        "latitude": "24.666545",
        "longitude": "121.818353",
        "note": "銅級環保旅館",
        "county": "宜蘭縣",
        "town": "五結鄉",
        "village": "-"
    },
    {
        "serialnumber": "",
        "name": "新竹老爺大酒店",
        "address": "新竹市東區光復路一段227號",
        "phone": "035631285",
        "latitude": "24.781607",
        "longitude": "121.020385",
        "note": "銅級環保旅館",
        "county": "新竹市",
        "town": "東區",
        "village": "-"
    },
    {
        "serialnumber": "",
        "name": "台北六福萬怡酒店",
        "address": "臺北市南港區忠孝東路七段359號7樓、7樓之1、8樓、9樓、9樓之1、30樓",
        "phone": "0266156565",
        "latitude": "25.052355",
        "longitude": "121.611539",
        "note": "銀級環保旅館",
        "county": "台北市",
        "town": "南港區",
        "village": "-"
    },
    {
        "serialnumber": "",
        "name": "煙波大飯店 麗池館",
        "address": "新竹市明湖路773號",
        "phone": "035203188",
        "latitude": "24.77617",
        "longitude": "120.968485",
        "note": "金級環保旅館",
        "county": "新竹市",
        "town": "東區",
        "village": "-"
    },
    {
        "serialnumber": "",
        "name": "煙波大飯店-都會一館",
        "address": "新竹市民生路177號",
        "phone": "036120000",
        "latitude": "24.810808",
        "longitude": "120.976269",
        "note": "金級環保旅館",
        "county": "新竹市",
        "town": "東區",
        "village": "-"
    },
    {
        "serialnumber": "",
        "name": "屏東縣恆春鎮大光里砂尾路71-1號",
        "address": "屏東縣恆春鎮大光里砂尾路71-1號",
        "phone": "0937167048",
        "latitude": "21.956233",
        "longitude": "120.732751",
        "note": "銅級環保旅館",
        "county": "屏東縣",
        "town": "恆春鎮",
        "village": "-"
    },
    {
        "serialnumber": "",
        "name": "底加睏-眷村民宿",
        "address": "高雄市鳳山區黃埔新村東四巷105號",
        "phone": "0983358883",
        "latitude": "22.618406",
        "longitude": "120.365015",
        "note": "銅級環保旅館",
        "county": "高雄市",
        "town": "鳳山區",
        "village": "-"
    },
    {
        "serialnumber": "",
        "name": "台北艾麗酒店",
        "address": "臺北市信義區松高路18號",
        "phone": "0266318031",
        "latitude": "25.038667",
        "longitude": "121.567445",
        "note": "金級環保旅館",
        "county": "臺北市",
        "town": "信義區",
        "village": "-"
    },
    {
        "serialnumber": "",
        "name": "綠芙香氛SPA民宿",
        "address": "高雄市左營區緯十二路2-1號",
        "phone": "0915770068",
        "latitude": "22.694463",
        "longitude": "120.290913",
        "note": "銅級環保旅館",
        "county": "高雄市",
        "town": "左營區",
        "village": "-"
    },
    {
        "serialnumber": "",
        "name": "遠雄悅來大飯店",
        "address": "花蓮縣壽豐鄉鹽寮村山嶺18號",
        "phone": "038123900",
        "latitude": "23.8687925",
        "longitude": "121.5883709",
        "note": "銅級環保旅館",
        "county": "花蓮縣",
        "town": "壽豐鄉",
        "village": "-"
    },
    {
        "serialnumber": "",
        "name": "像個家plus民宿",
        "address": "花蓮縣花蓮市民主里007鄰北濱街12巷16號",
        "phone": "0978753532",
        "latitude": "23.9738875",
        "longitude": "121.6143671",
        "note": "銅級環保旅館",
        "county": "花蓮縣",
        "town": "花蓮市",
        "village": "-"
    },
    {
        "serialnumber": "",
        "name": "薇米文旅",
        "address": "屏東縣屏東市金泉里復興路25號9樓之1至9樓之32及10樓之1至10樓之32",
        "phone": "",
        "latitude": "22.669304",
        "longitude": "120.489767",
        "note": "銅級環保旅館",
        "county": "屏東縣",
        "town": "屏東市",
        "village": "-"
    },
    {
        "serialnumber": "",
        "name": "林口維多利亞民宿",
        "address": "桃園市蘆竹區坑子里14鄰八德二路280巷11號",
        "phone": "0905 111918",
        "latitude": "25.078967",
        "longitude": "121.332297",
        "note": "銅級環保旅館",
        "county": "桃園市",
        "town": "蘆竹區",
        "village": "-"
    },
    {
        "serialnumber": "",
        "name": "城市商旅-桃園車站館",
        "address": "桃園市桃園區中正路60號6樓之1、2、3、4及7樓之2",
        "phone": "033328000",
        "latitude": "24.99198",
        "longitude": "121.312355",
        "note": "銅級環保旅館",
        "county": "桃園市",
        "town": "桃園區",
        "village": "-"
    },
    {
        "serialnumber": "",
        "name": "娜路彎大酒店",
        "address": "臺東縣台東市連航路66號",
        "phone": "089239666",
        "latitude": "22.770108",
        "longitude": "121.12202",
        "note": "銀級環保旅館",
        "county": "臺東縣",
        "town": "台東市",
        "village": "-"
    },
    {
        "serialnumber": "",
        "name": "禧榕軒大飯店",
        "address": "臺南市北區成功路28號",
        "phone": "062222788",
        "latitude": "22.997995",
        "longitude": "120.208535",
        "note": "銅級環保旅館",
        "county": "臺南市",
        "town": "北區",
        "village": "-"
    },
    {
        "serialnumber": "",
        "name": "趣淘漫旅",
        "address": "臺南市楠西區密枝里密枝102-5號",
        "phone": "065754669",
        "latitude": "23.224332",
        "longitude": "120.500952",
        "note": "銅級環保旅館",
        "county": "臺南市",
        "town": "楠西區",
        "village": "-"
    },
    {
        "serialnumber": "",
        "name": "雲品溫泉酒店日月潭",
        "address": "南投縣魚池鄉日月潭中正路23號",
        "phone": "042856788",
        "latitude": "23.870912",
        "longitude": "120.923475",
        "note": "金級環保旅館",
        "county": "南投縣",
        "town": "魚池鄉",
        "village": "-"
    },
    {
        "serialnumber": "",
        "name": "棒棒積木飯店(積木館)",
        "address": "嘉義縣太保市太子大道209及223號",
        "phone": "053623223",
        "latitude": "23.468385",
        "longitude": "120.293396",
        "note": "金級環保旅館",
        "county": "嘉義縣",
        "town": "太保市",
        "village": "-"
    },
    {
        "serialnumber": "",
        "name": "承億酒店",
        "address": "高雄市前鎮區林森四路189號",
        "phone": "073333999",
        "latitude": "22.609281",
        "longitude": "120.302325",
        "note": "金級環保旅館",
        "county": "高雄市",
        "town": "前鎮區",
        "village": "-"
    },
    {
        "serialnumber": "",
        "name": "亞都麗緻大飯店",
        "address": "臺北市中山區民權東路2段41號",
        "phone": "0277352360",
        "latitude": "25.062829",
        "longitude": "121.52995",
        "note": "金級環保旅館",
        "county": "臺北市",
        "town": "中山區",
        "village": "-"
    },
    {
        "serialnumber": "",
        "name": "藍天麗池飯店",
        "address": "花蓮縣花蓮市民生里中正路590號",
        "phone": "038336686",
        "latitude": "23.978911",
        "longitude": "121.610118",
        "note": "銀級環保旅館",
        "county": "花蓮縣",
        "town": "花蓮市",
        "village": "-"
    },
    {
        "serialnumber": "",
        "name": "柳營尖山埤渡假村",
        "address": "臺南市柳營區旭山里60號",
        "phone": "066233888",
        "latitude": "23.26423239",
        "longitude": "120.3941046",
        "note": "銅級環保旅館",
        "county": "臺南市",
        "town": "柳營區",
        "village": "-"
    },
    {
        "serialnumber": "",
        "name": "澎澄飯店",
        "address": "澎湖縣馬公市同和路168號",
        "phone": "069235678",
        "latitude": "23.56685611",
        "longitude": "119.57222222",
        "note": "金級環保旅館",
        "county": "澎湖縣",
        "town": "馬公市",
        "village": "-"
    },
    {
        "serialnumber": "",
        "name": "惠來谷關溫泉會館",
        "address": "臺中市和平區東關路一段溫泉巷十號",
        "phone": "(04)25951998#621",
        "latitude": "24.20417876",
        "longitude": "121.01077414",
        "note": "銅級環保旅館",
        "county": "臺中市",
        "town": "和平區",
        "village": "-"
    },
    {
        "serialnumber": "",
        "name": "高雄洲際酒店",
        "address": "高雄市前鎮區新光路33號 1樓、3~16樓",
        "phone": "(07)2132006",
        "latitude": "22.61126767",
        "longitude": "120.303525",
        "note": "金級環保旅館",
        "county": "高雄市",
        "town": "前鎮區",
        "village": "-"
    },
    {
        "serialnumber": "",
        "name": "桂林商務旅館",
        "address": "桃園市蘆竹區桃園街106號",
        "phone": "03-3116799",
        "latitude": "25.0466155",
        "longitude": "121.29156772",
        "note": "銀級環保旅館",
        "county": "桃園市",
        "town": "蘆竹區",
        "village": "-"
    },
    {
        "serialnumber": "",
        "name": "台北花園大酒店",
        "address": "臺北市中正區中華路2段1號",
        "phone": "(02)23143300#3151",
        "latitude": "25.03637048",
        "longitude": "121.50681761",
        "note": "銀級環保旅館",
        "county": "臺北市",
        "town": "中正區",
        "village": "-"
    },
    {
        "serialnumber": "",
        "name": "享豪大飯店",
        "address": "新竹縣竹北市信義街7號",
        "phone": "(03)6565501",
        "latitude": "24.8360735",
        "longitude": "121.00955891",
        "note": "銅級環保旅館",
        "county": "新竹縣",
        "town": "竹北市",
        "village": "-"
    },
    {
        "serialnumber": "",
        "name": "傑仕堡有氧酒店",
        "address": "新北市板橋區縣民大道2段275號、275號2至17樓、277號2樓",
        "phone": "(02)77273000#54083",
        "latitude": "25.017678",
        "longitude": "121.469401",
        "note": "金級環保旅館",
        "county": "新北市",
        "town": "板橋區",
        "village": "-"
    },
    {
        "serialnumber": "",
        "name": "新竹福華大飯店",
        "address": "新竹市中正路178號",
        "phone": "(03)5282323#5303",
        "latitude": "24.80982778",
        "longitude": "120.9663674",
        "note": "銅級環保旅館",
        "county": "新竹市",
        "town": "北區",
        "village": "-"
    },
    {
        "serialnumber": "",
        "name": "桃園喜來登酒店",
        "address": "桃園市大園區大觀路777號",
        "phone": "(03)3850000#2605",
        "latitude": "25.06148034",
        "longitude": "121.17594977",
        "note": "銀級環保旅館",
        "county": "桃園市",
        "town": "大園區",
        "village": "-"
    },
    {
        "serialnumber": "",
        "name": "智醫康寓",
        "address": "桃園市桃園區民生路107號1-3樓及7-20樓",
        "phone": "(03)3362575",
        "latitude": "25.00014198",
        "longitude": "121.34483601",
        "note": "銅級環保旅館",
        "county": "桃園市",
        "town": "龜山區",
        "village": "-"
    },
    {
        "serialnumber": "",
        "name": "煙波大飯店花蓮太魯閣山闊館",
        "address": "花蓮縣新城鄉順安村草林10-7號",
        "phone": "(03)8612000#1470",
        "latitude": "24.11514752",
        "longitude": "121.63938686",
        "note": "金級環保旅館",
        "county": "花蓮縣",
        "town": "新城鄉",
        "village": "-"
    },
    {
        "serialnumber": "",
        "name": "煙波花時間 花蓮",
        "address": "花蓮縣新城鄉順安村草林10-5號2~6樓",
        "phone": "(03)8612000#1470",
        "latitude": "24.11544129",
        "longitude": "121.63968727",
        "note": "金級環保旅館",
        "county": "花蓮縣",
        "town": "新城鄉",
        "village": "-"
    },
    {
        "serialnumber": "",
        "name": "高雄福華大飯店",
        "address": "高雄市新興區七賢一路311號",
        "phone": "(07)2307737",
        "latitude": "22.6337448",
        "longitude": "120.30813237",
        "note": "銀級環保旅館",
        "county": "高雄市",
        "town": "新興區",
        "village": "-"
    },
    {
        "serialnumber": "",
        "name": "藍水輕旅",
        "address": "桃園市大園區高鐵南路一段126號",
        "phone": "(03)2871855",
        "latitude": "25.0089247",
        "longitude": "121.21006787",
        "note": "銅級環保旅館",
        "county": "桃園市",
        "town": "大園區",
        "village": "-"
    },
    {
        "serialnumber": "",
        "name": "日玥居",
        "address": "金門縣金寧鄉南山19號",
        "phone": "(0987)397327",
        "latitude": "24.4783813",
        "longitude": "118.30804293",
        "note": "銅級環保旅館",
        "county": "金門縣",
        "town": "金寧鄉",
        "village": "-"
    },
    {
        "serialnumber": "",
        "name": "台糖長榮酒店(台南)",
        "address": "臺南市東區中華東路三段336巷1號",
        "phone": "(06)3378888",
        "latitude": "22.9744738",
        "longitude": "120.2208836",
        "note": "銅級環保旅館",
        "county": "臺南市",
        "town": "東區",
        "village": "-"
    },
    {
        "serialnumber": "",
        "name": "大地酒店",
        "address": "臺北市北投區奇岩路1號",
        "phone": "(02)28931221#1003",
        "latitude": "25.13500876",
        "longitude": "121.5069911",
        "note": "金級環保旅館",
        "county": "臺北市",
        "town": "北投區",
        "village": "-"
    },
    {
        "serialnumber": "",
        "name": "金湖飯店",
        "address": "金門縣金湖鎮太湖路二段218號",
        "phone": "(082)379666#160",
        "latitude": "24.439254",
        "longitude": "118.41936927",
        "note": "金級環保旅館",
        "county": "金門縣",
        "town": "金湖鎮",
        "village": "-"
    },
    {
        "serialnumber": "",
        "name": "緣羊軒民宿",
        "address": "臺東縣台東市南一街96號",
        "phone": "089326400",
        "latitude": "22.77859019",
        "longitude": "121.12321927",
        "note": "銅級環保旅館",
        "county": "臺東縣",
        "town": "台東市",
        "village": "-"
    },
    {
        "serialnumber": "",
        "name": "打個蛋海旅民宿",
        "address": "臺東縣太麻里鄉金崙4鄰129號",
        "phone": "(089)771551",
        "latitude": "22.53397",
        "longitude": "120.963283",
        "note": "銅級環保旅館",
        "county": "臺東縣",
        "town": "太麻里鄉",
        "village": "-"
    },
    {
        "serialnumber": "",
        "name": "泡泡森林民宿",
        "address": "臺東縣台東市南一街40號",
        "phone": "0986866545",
        "latitude": "22.77774768",
        "longitude": "121.12432217",
        "note": "銅級環保旅館",
        "county": "臺東縣",
        "town": "臺東市",
        "village": "-"
    },
    {
        "serialnumber": "",
        "name": "勝利127民宿",
        "address": "屏東縣屏東市勝利路127號",
        "phone": "(08)7320099",
        "latitude": "22.6792654",
        "longitude": "120.48561737",
        "note": "銅級環保旅館",
        "county": "屏東縣",
        "town": "屏東市",
        "village": "-"
    },
    {
        "serialnumber": "",
        "name": "勝利131民宿",
        "address": "屏東縣屏東市勝利路131號",
        "phone": "(08)7320099",
        "latitude": "22.679288",
        "longitude": "120.4855197",
        "note": "銅級環保旅館",
        "county": "屏東縣",
        "town": "屏東市",
        "village": "-"
    },
    {
        "serialnumber": "",
        "name": "台東Deer House民宿",
        "address": "臺東縣鹿野鄉永安村1鄰永安路７１號",
        "phone": "(089)552224",
        "latitude": "22.9304991",
        "longitude": "121.1392558",
        "note": "銅級環保旅館",
        "county": "臺東縣",
        "town": "鹿野鄉",
        "village": "-"
    },
    {
        "serialnumber": "",
        "name": "凱旋酒店",
        "address": "臺北市內湖區江南街55號3樓至9樓",
        "phone": "(02)87527888#6203",
        "latitude": "25.07738056",
        "longitude": "121.57778557",
        "note": "銀級環保旅館",
        "county": "臺北市",
        "town": "內湖區",
        "village": "-"
    },
    {
        "serialnumber": "",
        "name": "綠藤輕旅",
        "address": "桃園市大園區中山南路二段673號",
        "phone": "(03)2873043",
        "latitude": "25.01929",
        "longitude": "121.21398327",
        "note": "銅級環保旅館",
        "county": "桃園市",
        "town": "大園區",
        "village": "-"
    },
    {
        "serialnumber": "",
        "name": "尊爵大飯店",
        "address": "桃園市桃園區莊敬路一段300號",
        "phone": "(03)3169090#8502",
        "latitude": "25.02466416",
        "longitude": "121.29762717",
        "note": "銀級環保旅館",
        "county": "桃園市",
        "town": "桃園區",
        "village": "-"
    },
    {
        "serialnumber": "",
        "name": "武陵國民賓館",
        "address": "臺中市和平區平等里武陵路3-1號",
        "phone": "(04)25901258#2103",
        "latitude": "24.34631026",
        "longitude": "121.30834627",
        "note": "銀級環保旅館",
        "county": "臺中市",
        "town": "和平區",
        "village": "-"
    },
    {
        "serialnumber": "",
        "name": "HOFI  VILLA和風飯店",
        "address": "宜蘭縣頭城鎮宜三路一段56號",
        "phone": "(03)9777711",
        "latitude": "24.84205386",
        "longitude": "121.79191523",
        "note": "銀級環保旅館",
        "county": "宜蘭縣",
        "town": "頭城鎮",
        "village": "-"
    },
    {
        "serialnumber": "",
        "name": "老公老婆友善民宿",
        "address": "宜蘭縣冬山鄉境安路345號",
        "phone": "(03) 9519013",
        "latitude": "24.6793738",
        "longitude": "121.74208777",
        "note": "銅級環保旅館",
        "county": "宜蘭縣",
        "town": "冬山鄉",
        "village": "-"
    },
    {
        "serialnumber": "",
        "name": "捷絲旅礁溪館",
        "address": "宜蘭縣礁溪鄉德陽路24巷8號、10號",
        "phone": "(03)9102000#8104",
        "latitude": "24.82874356",
        "longitude": "121.7724881",
        "note": "銅級環保旅館",
        "county": "宜蘭縣",
        "town": "礁溪鄉",
        "village": "-"
    },
    {
        "serialnumber": "",
        "name": "福美民宿",
        "address": "臺東縣台東市精誠路241號",
        "phone": "(089)328466",
        "latitude": "22.75278848",
        "longitude": "121.15580347",
        "note": "銅級環保旅館",
        "county": "臺東縣",
        "town": "臺東市",
        "village": "-"
    },
    {
        "serialnumber": "",
        "name": "好室民宿",
        "address": "臺東縣台東市中正路251巷9號",
        "phone": "(0905)583758",
        "latitude": "22.75527659",
        "longitude": "121.1531159",
        "note": "銅級環保旅館",
        "county": "臺東縣",
        "town": "臺東市",
        "village": "-"
    },
    {
        "serialnumber": "",
        "name": "爸爸萬歲民宿",
        "address": "花蓮縣花蓮市延平街68巷27號",
        "phone": "(0900)757520",
        "latitude": "23.9853057",
        "longitude": "121.60187554",
        "note": "銅級環保旅館",
        "county": "花蓮縣",
        "town": "花蓮市",
        "village": "-"
    },
    {
        "serialnumber": "",
        "name": "秧悦美地度假酒店",
        "address": "花蓮縣吉安鄉干城村干城二街95-9號",
        "phone": "(03)8129168#2701",
        "latitude": "23.94647799",
        "longitude": "121.54412138",
        "note": "銀級環保旅館",
        "county": "花蓮縣",
        "town": "吉安鄉",
        "village": "-"
    },
    {
        "serialnumber": "",
        "name": "福容大飯店　福隆",
        "address": "新北市貢寮區福隆里福隆街41號",
        "phone": "(02)24992381",
        "latitude": "25.01838298",
        "longitude": "121.9439558",
        "note": "金級環保旅館",
        "county": "新北市",
        "town": "貢寮區",
        "village": "-"
    },
    {
        "serialnumber": "",
        "name": "日日森旅二館",
        "address": "彰化縣田尾鄉民族路一段185巷11號",
        "phone": "(04)8221669",
        "latitude": "23.89702288",
        "longitude": "120.53020444",
        "note": "銅級環保旅館",
        "county": "彰化縣",
        "town": "田尾鄉",
        "village": "-"
    },
    {
        "serialnumber": "",
        "name": "奧斯卡民宿",
        "address": "臺東縣台東市興安路1段175號",
        "phone": "(0965)329000",
        "latitude": "22.78906586",
        "longitude": "121.12732588",
        "note": "銅級環保旅館",
        "county": "臺東縣",
        "town": "臺東市",
        "village": "-"
    },
    {
        "serialnumber": "",
        "name": "小古堡民宿",
        "address": "臺東縣台東市興安路一段165號",
        "phone": "(0910)633944",
        "latitude": "22.78899049",
        "longitude": "121.12733323",
        "note": "銅級環保旅館",
        "county": "臺東縣",
        "town": "臺東市",
        "village": "-"
    },
    {
        "serialnumber": "",
        "name": "奧斯卡去旅行",
        "address": "臺東縣臺東市興安路一段167號",
        "phone": "(0910)633944",
        "latitude": "22.78932802",
        "longitude": "121.12729987",
        "note": "銅級環保旅館",
        "county": "臺東縣",
        "town": "臺東市",
        "village": "-"
    },
    {
        "serialnumber": "",
        "name": "翰品酒店 高雄",
        "address": "高雄市鹽埕區大仁路43號",
        "phone": "(07)5614688#3110",
        "latitude": "22.62480321",
        "longitude": "120.28564857",
        "note": "金級環保旅館",
        "county": "高雄市",
        "town": "鹽埕區",
        "village": "-"
    },
    {
        "serialnumber": "",
        "name": "三道門建築文創旅店",
        "address": "臺南市中西區成功路75、77號",
        "phone": "(3088)2223088",
        "latitude": "22.99758828",
        "longitude": "120.20842727",
        "note": "銅級環保旅館",
        "county": "臺南市",
        "town": "中西區",
        "village": "-"
    },
    {
        "serialnumber": "",
        "name": "福爾摩沙遊艇酒店",
        "address": "臺南市安平區王城里13鄰安平路988號1至10樓",
        "phone": "(06)3911313",
        "latitude": "22.99869499",
        "longitude": "120.15505153",
        "note": "銅級環保旅館",
        "county": "臺南市",
        "town": "安平區",
        "village": "-"
    },
    {
        "serialnumber": "",
        "name": "台糖台北會館",
        "address": "臺北市中正區中華路一段39號3至5樓",
        "phone": "(02)23885522#5001",
        "latitude": "25.04536176",
        "longitude": "121.5098341",
        "note": "銅級環保旅館",
        "county": "臺北市",
        "town": "中正區",
        "village": "-"
    },
    {
        "serialnumber": "",
        "name": "台糖台北會館",
        "address": "臺北市中正區中華路一段39號3至5樓",
        "phone": "(02)23885522#5001",
        "latitude": "25.04536176",
        "longitude": "121.5098341",
        "note": "銅級環保旅館",
        "county": "臺北市",
        "town": "中正區",
        "village": "-"
    },
    {
        "serialnumber": "",
        "name": "天成大飯店",
        "address": "臺北市中正區忠孝西路一段43號",
        "phone": "(02)23118905#3705",
        "latitude": "25.0463736",
        "longitude": "121.5183769",
        "note": "銀級環保旅館",
        "county": "臺北市",
        "town": "中正區",
        "village": "-"
    },
    {
        "serialnumber": "",
        "name": "台糖花蓮旅館",
        "address": "花蓮縣光復鄉大進村糖廠街19號",
        "phone": "(03)8704125#621",
        "latitude": "23.65676483",
        "longitude": "121.41993677",
        "note": "銅級環保旅館",
        "county": "花蓮縣",
        "town": "光復鄉",
        "village": "-"
    },
    {
        "serialnumber": "",
        "name": "新悦花園酒店",
        "address": "嘉義市東區後湖里6鄰保順路69號",
        "phone": "(05)2777266#5801",
        "latitude": "23.50465996",
        "longitude": "120.44985134",
        "note": "金級環保旅館",
        "county": "嘉義市",
        "town": "東區",
        "village": "-"
    },
    {
        "serialnumber": "",
        "name": "承萬尊爵渡假酒店",
        "address": "南投縣埔里鎮樹人路131號",
        "phone": "(049)2995757#6316",
        "latitude": "23.959941",
        "longitude": "120.9754445",
        "note": "銀級環保旅館",
        "county": "南投縣",
        "town": "埔里鎮",
        "village": "-"
    },
    {
        "serialnumber": "",
        "name": "長榮文苑酒店(嘉義)",
        "address": "嘉義縣太保市東勢里故宮大道777號",
        "phone": "(05)3669988#2700",
        "latitude": "23.46862118",
        "longitude": "120.2949617",
        "note": "金級環保旅館",
        "county": "嘉義縣",
        "town": "太保市",
        "village": "-"
    },
    {
        "serialnumber": "",
        "name": "將捷金鬱金香酒店",
        "address": "新北市淡水區中正路1段2之1號(A區地上3至6層、B區地上1至5層、C區地下3層至地上3層)",
        "phone": "(02)26218555#2913",
        "latitude": "25.17659347",
        "longitude": "121.4297257",
        "note": "金級環保旅館",
        "county": "新北市",
        "town": "淡水區",
        "village": "-"
    },
    {
        "serialnumber": "",
        "name": "捷絲旅西門町店",
        "address": "臺北市中正區中華路一段41號5樓至9樓",
        "phone": "(02)25215000",
        "latitude": "25.04490466",
        "longitude": "121.5095061",
        "note": "銅級環保旅館",
        "county": "臺北市",
        "town": "中正區",
        "village": "-"
    },
    {
        "serialnumber": "",
        "name": "晶泉丰旅",
        "address": "宜蘭縣礁溪鄉溫泉路67號2至10樓",
        "phone": "(03)9100000#6105",
        "latitude": "24.82875675",
        "longitude": "121.77281711",
        "note": "銅級環保旅館",
        "county": "宜蘭縣",
        "town": "礁溪鄉",
        "village": "-"
    },
    {
        "serialnumber": "",
        "name": "凱達大飯店",
        "address": "臺北市萬華區艋舺大道167號1-26樓",
        "phone": "(02)23836789#6321",
        "latitude": "25.03335634",
        "longitude": "121.49989244",
        "note": "金級環保旅館",
        "county": "臺北市",
        "town": "萬華區",
        "village": "-"
    },
    {
        "serialnumber": "",
        "name": "山形閣",
        "address": "宜蘭縣礁溪鄉中山路二段187號",
        "phone": "(03)9872323",
        "latitude": "24.82827907",
        "longitude": "121.77507282",
        "note": "銀級環保旅館",
        "county": "宜蘭縣",
        "town": "礁溪鄉",
        "village": "-"
    },
    {
        "serialnumber": "",
        "name": "劍湖山渡假大飯店",
        "address": "雲林縣古坑鄉永光村大湖口67-8號",
        "phone": "(05)5829900#7214",
        "latitude": "23.61522064",
        "longitude": "120.57674208",
        "note": "銀級環保旅館",
        "county": "雲林縣",
        "town": "古坑鄉",
        "village": "-"
    },
    {
        "serialnumber": "",
        "name": "晶英國際行館",
        "address": "高雄市前鎮區中山二路199號",
        "phone": "(07)9730186#1666",
        "latitude": "22.61060049",
        "longitude": "120.3054539",
        "note": "金級環保旅館",
        "county": "高雄市",
        "town": "前鎮區",
        "village": "-"
    },
    {
        "serialnumber": "",
        "name": "阿里山賓館（現代館）",
        "address": "嘉義縣阿里山鄉香林村西阿里山16-1號",
        "phone": "(05)2679996#5117",
        "latitude": "23.51097356",
        "longitude": "120.8034992",
        "note": "金級環保旅館",
        "county": "嘉義縣",
        "town": "阿里山鄉",
        "village": "-"
    },
    {
        "serialnumber": "",
        "name": "河那灣",
        "address": "桃園市復興區澤仁里3鄰溪口台41號",
        "phone": "(0919)235303",
        "latitude": "24.80359869",
        "longitude": "121.34265143",
        "note": "銅級環保旅館",
        "county": "桃園市",
        "town": "復興區",
        "village": "-"
    },
    {
        "serialnumber": "",
        "name": "長榮桂冠酒店(台中)",
        "address": "臺中市西屯區臺灣大道二段666號",
        "phone": "(04)23242236#2700",
        "latitude": "24.15929492",
        "longitude": "120.65706914",
        "note": "金級環保旅館",
        "county": "臺中市",
        "town": "西屯區",
        "village": "-"
    },
    {
        "serialnumber": "",
        "name": "華泰瑞苑",
        "address": "屏東縣恆春鎮公園路101號",
        "phone": "(08)8863666",
        "latitude": "21.9563267",
        "longitude": "120.80835563",
        "note": "金級環保旅館",
        "county": "屏東縣",
        "town": "恆春鎮",
        "village": "-"
    },
    {
        "serialnumber": "",
        "name": "煙波花時間 宜蘭傳藝",
        "address": "宜蘭縣五結鄉五濱路二段201號",
        "phone": "(03)9256899#1171",
        "latitude": "24.68570894",
        "longitude": "121.8240474",
        "note": "金級環保旅館",
        "county": "宜蘭縣",
        "town": "五結鄉",
        "village": "-"
    },
    {
        "serialnumber": "",
        "name": "小烏來山莊",
        "address": "桃園市復興區義盛里1鄰宇內路99號",
        "phone": "(03)3821199",
        "latitude": "24.7854824",
        "longitude": "121.3984674",
        "note": "銅級環保旅館",
        "county": "桃園市",
        "town": "復興區",
        "village": "-"
    },
    {
        "serialnumber": "",
        "name": "悅徠舘",
        "address": "桃園市龜山區興華三街18號2樓之1",
        "phone": "(03)3280177",
        "latitude": "25.0540496",
        "longitude": "121.3656436",
        "note": "銅級環保旅館",
        "county": "桃園市",
        "town": "龜山區",
        "village": "-"
    },
    {
        "serialnumber": "",
        "name": "如一家精緻民宿",
        "address": "金門縣金城鎮珠浦北路35-1號",
        "phone": "(082)322167",
        "latitude": "24.4339889",
        "longitude": "118.3171952",
        "note": "銅級環保旅館",
        "county": "金門縣",
        "town": "金城鎮",
        "village": "-"
    },
    {
        "serialnumber": "",
        "name": "星漾商旅中清館",
        "address": "臺中市北區中清路一段63號",
        "phone": "(04)22083888",
        "latitude": "24.1541402",
        "longitude": "120.6770607",
        "note": "銀級環保旅館",
        "county": "臺中市",
        "town": "北區",
        "village": "-"
    },
    {
        "serialnumber": "",
        "name": "維悅酒店",
        "address": "臺南市安平區慶平路539號 1至5樓及地下1樓",
        "phone": "(06)2950888#1125",
        "latitude": "22.99709523",
        "longitude": "120.17122194",
        "note": "銅級環保旅館",
        "county": "臺南市",
        "town": "安平區",
        "village": "-"
    },
    {
        "serialnumber": "",
        "name": "長榮鳳凰酒店(礁溪)",
        "address": "宜蘭縣礁溪鄉健康路77號",
        "phone": "(03)9100988#2335",
        "latitude": "24.83118384",
        "longitude": "121.7748992",
        "note": "銀級環保旅館",
        "county": "宜蘭縣",
        "town": "礁溪鄉",
        "village": "-"
    },
    {
        "serialnumber": "",
        "name": "旅悅國際青年旅館",
        "address": "高雄市前鎮區三多三路211號3樓及4樓",
        "phone": "(07)3359006",
        "latitude": "22.61460908",
        "longitude": "120.30707905",
        "note": "銅級環保旅館",
        "county": "高雄市",
        "town": "前鎮區",
        "village": "-"
    },
    {
        "serialnumber": "",
        "name": "太平山莊",
        "address": "宜蘭縣大同鄉太平村太平巷58之1號",
        "phone": "(03)9545114#607",
        "latitude": "24.4973747",
        "longitude": "121.5351067",
        "note": "金級環保旅館",
        "county": "宜蘭縣",
        "town": "大同鄉",
        "village": "-"
    },
    {
        "serialnumber": "",
        "name": "橘子民宿",
        "address": "苗栗縣竹南鎮竹南里7鄰民治街12號",
        "phone": "(0972)092658",
        "latitude": "24.68502563",
        "longitude": "120.87947674",
        "note": "銅級環保旅館",
        "county": "苗栗縣",
        "town": "竹南鎮",
        "village": "-"
    },
    {
        "serialnumber": "",
        "name": "福華石門水庫渡假飯店",
        "address": "桃園市龍潭區民富街176號",
        "phone": "(03)4714888",
        "latitude": "24.8178302",
        "longitude": "121.2428653",
        "note": "銀級環保旅館",
        "county": "桃園市",
        "town": "龍潭區",
        "village": "-"
    },
    {
        "serialnumber": "",
        "name": "福容大飯店股份有限公司花蓮分公司",
        "address": "花蓮縣花蓮市民生路51號",
        "phone": "(03)8239988#7507",
        "latitude": "23.9955351",
        "longitude": "121.6331949",
        "note": "銀級環保旅館",
        "county": "花蓮縣",
        "town": "花蓮市",
        "village": "-"
    },
    {
        "serialnumber": "",
        "name": "山鄰山林青年文旅",
        "address": "花蓮縣玉里鎮大同路226.228號",
        "phone": "(03)8887228",
        "latitude": "23.3328292",
        "longitude": "121.3126409",
        "note": "銅級環保旅館",
        "county": "花蓮縣",
        "town": "玉里鎮",
        "village": "-"
    },
    {
        "serialnumber": "",
        "name": "老爺大酒店",
        "address": "臺北市中山區中山北路2段37-1號",
        "phone": "(02)25423299#359",
        "latitude": "25.05370696",
        "longitude": "121.5229496",
        "note": "銅級環保旅館",
        "county": "臺北市",
        "town": "中山區",
        "village": "-"
    },
    {
        "serialnumber": "",
        "name": "裕元花園酒店",
        "address": "臺中市西屯區臺灣大道四段610號",
        "phone": "(04)24655660#5030",
        "latitude": "24.1797834",
        "longitude": "120.624028",
        "note": "銀級環保旅館",
        "county": "臺中市",
        "town": "西屯區",
        "village": "-"
    },
    {
        "serialnumber": "",
        "name": "台北松山意舍酒店",
        "address": "臺北市南港區市民大道7段8號17樓至21樓",
        "phone": "(02)26532828#2100",
        "latitude": "25.04930012",
        "longitude": "121.5805022",
        "note": "銀級環保旅館",
        "county": "臺北市",
        "town": "南港區",
        "village": "-"
    },
    {
        "serialnumber": "",
        "name": "嘉義智選假日酒店",
        "address": "嘉義市西區中興路69號B2至13層樓",
        "phone": "(05)2335899#801",
        "latitude": "23.48119056",
        "longitude": "120.43793327",
        "note": "銅級環保旅館",
        "county": "嘉義市",
        "town": "西區",
        "village": "-"
    },
    {
        "serialnumber": "",
        "name": "提米好旅",
        "address": "彰化縣彰化市成功路277號",
        "phone": "(04)7061086#9",
        "latitude": "24.0818211",
        "longitude": "120.5412334",
        "note": "銀級環保旅館",
        "county": "彰化縣",
        "town": "彰化市",
        "village": "-"
    },
    {
        "serialnumber": "",
        "name": "嘉仕特飯店",
        "address": "桃園市桃園區中山路203號",
        "phone": "(03)3343999",
        "latitude": "24.99282472",
        "longitude": "121.30826924",
        "note": "銅級環保旅館",
        "county": "桃園市",
        "town": "桃園區",
        "village": "-"
    },
    {
        "serialnumber": "",
        "name": "福容徠旅林口",
        "address": "桃園市龜山區文二一街68號",
        "phone": "(03)3277388#300",
        "latitude": "25.06036422",
        "longitude": "121.36272917",
        "note": "銀級環保旅館",
        "county": "桃園市",
        "town": "龜山區",
        "village": "-"
    },
    {
        "serialnumber": "",
        "name": "大溪老城四季行館",
        "address": "桃園市大溪區中央路37號",
        "phone": "(03)3881818",
        "latitude": "24.87934827",
        "longitude": "121.28761353",
        "note": "銅級環保旅館",
        "county": "桃園市",
        "town": "大溪區",
        "village": "-"
    },
    {
        "serialnumber": "",
        "name": "伊塔原旅臺東縣原住民文化會館",
        "address": "臺東縣台東市中山路10號",
        "phone": "(089)34060",
        "latitude": "22.76240667",
        "longitude": "121.1574738",
        "note": "銅級環保旅館",
        "county": "臺東縣",
        "town": "台東市",
        "village": "-"
    },
    {
        "serialnumber": "",
        "name": "趣淘漫旅-台東",
        "address": "臺東縣台東市新站路260號",
        "phone": "(089)231188#7187",
        "latitude": "22.79230379",
        "longitude": "121.12448487",
        "note": "銅級環保旅館",
        "county": "臺東縣",
        "town": "台東市",
        "village": "-"
    },
    {
        "serialnumber": "",
        "name": "秘境41",
        "address": "桃園市大溪區興和里中央路41號",
        "phone": "(03)3887111",
        "latitude": "24.87943223",
        "longitude": "121.28762533",
        "note": "銅級環保旅館",
        "county": "桃園市",
        "town": "大溪區",
        "village": "-"
    },
    {
        "serialnumber": "",
        "name": "福華國際文教會館",
        "address": "臺北市大安區新生南路3段30號(住宿棟1樓及5樓至14樓)",
        "phone": "(02)77122323#2340",
        "latitude": "25.02366782",
        "longitude": "121.5343264",
        "note": "銀級環保旅館",
        "county": "臺北市",
        "town": "大安區",
        "village": "-"
    },
    {
        "serialnumber": "",
        "name": "九昱晴美",
        "address": "臺北市中山區林森北路568號2樓至13樓，3樓之1、2、3、5、6至12樓之1、2、3、5、6，13樓之1",
        "phone": "(02)66080807#105",
        "latitude": "25.06470274",
        "longitude": "121.5255369",
        "note": "銅級環保旅館",
        "county": "臺北市",
        "town": "中山區",
        "village": "-"
    },
    {
        "serialnumber": "",
        "name": "台北遠東香格里拉",
        "address": "臺北市大安區敦化南路二段201號",
        "phone": "(02)23788888#6608",
        "latitude": "25.0264311",
        "longitude": "121.5493234",
        "note": "銅級環保旅館",
        "county": "臺北市",
        "town": "大安區",
        "village": "-"
    },
    {
        "serialnumber": "",
        "name": "統一渡假村",
        "address": "新竹縣關西鎮金山里34號",
        "phone": "(03)5478888",
        "latitude": "24.76708625",
        "longitude": "121.2177233",
        "note": "銅級環保旅館",
        "county": "新竹縣",
        "town": "關西鎮",
        "village": "-"
    },
    {
        "serialnumber": "",
        "name": "阿里山東方明珠國際大飯店",
        "address": "嘉義縣中埔鄉社口村檨仔林23號",
        "phone": "(05)2536999",
        "latitude": "23.44395621",
        "longitude": "120.54375184",
        "note": "銅級環保旅館",
        "county": "嘉義縣",
        "town": "中埔鄉",
        "village": "-"
    },
    {
        "serialnumber": "",
        "name": "麗翔大飯店",
        "address": "花蓮縣花蓮市花崗街2、4、6、8、10號",
        "phone": "(03)8323737",
        "latitude": "23.97426187",
        "longitude": "121.6117958",
        "note": "銅級環保旅館",
        "county": "花蓮縣",
        "town": "花蓮市",
        "village": "-"
    },
    {
        "serialnumber": "",
        "name": "統一谷關渡假村",
        "address": "臺中市和平區博愛里東關路一段188號",
        "phone": "(04)25950000",
        "latitude": "24.20165423",
        "longitude": "121.00167913",
        "note": "銅級環保旅館",
        "county": "臺中市",
        "town": "和平區",
        "village": "-"
    },
    {
        "serialnumber": "",
        "name": "福容大飯店 台北二館",
        "address": "新北市深坑區北深路三段236號",
        "phone": "(02)26620088#186",
        "latitude": "25.00421502",
        "longitude": "121.60032904",
        "note": "金級環保旅館",
        "county": "新北市",
        "town": "深坑區",
        "village": "-"
    },
    {
        "serialnumber": "",
        "name": "北投老爺酒店",
        "address": "臺北市北投區中和街2號",
        "phone": "(02)28966966#8878",
        "latitude": "25.13765674",
        "longitude": "121.503824",
        "note": "金級環保旅館",
        "county": "臺北市",
        "town": "北投區",
        "village": "-"
    },
    {
        "serialnumber": "",
        "name": "台南大員皇冠假日酒店",
        "address": "臺南市安平區州平路289號",
        "phone": "(06)5121888#6002",
        "latitude": "22.99936795",
        "longitude": "120.14888773",
        "note": "銀級環保旅館",
        "county": "臺南市",
        "town": "安平區",
        "village": "-"
    },
    {
        "serialnumber": "",
        "name": "瑞穗天合國際觀光酒店",
        "address": "花蓮縣瑞穗鄉溫泉路二段368號",
        "phone": "(03)8876000#3260",
        "latitude": "23.49373926",
        "longitude": "121.35429986",
        "note": "銀級環保旅館",
        "county": "花蓮縣",
        "town": "瑞穗鄉",
        "village": "-"
    },
    {
        "serialnumber": "",
        "name": "高雄中央公園英迪格酒店",
        "address": "高雄市新興區中山一路4號",
        "phone": "(07)2721555#301",
        "latitude": "22.6244552",
        "longitude": "120.3015175",
        "note": "銀級環保旅館",
        "county": "高雄市",
        "town": "新興區",
        "village": "-"
    },
    {
        "serialnumber": "",
        "name": "四季時光",
        "address": "南投縣魚池鄉頭社村平和巷103-11號",
        "phone": "(0932)376767",
        "latitude": "23.8367388",
        "longitude": "120.9036168",
        "note": "銀級環保旅館",
        "county": "南投縣",
        "town": "魚池鄉",
        "village": "-"
    },
    {
        "serialnumber": "",
        "name": "桃園大溪笠復威斯汀度假酒店",
        "address": "桃園市大溪區日新路166號",
        "phone": "(03)2725035",
        "latitude": "24.8825465",
        "longitude": "121.326207",
        "note": "銀級環保旅館",
        "county": "桃園市",
        "town": "大溪區",
        "village": "-"
    },
    {
        "serialnumber": "",
        "name": "捷絲旅 台南虎山館",
        "address": "臺南市仁德區成功里5鄰文華路2段300號1~9樓，地下一、二樓",
        "phone": "(06)2662218#8321",
        "latitude": "22.9381044",
        "longitude": "120.23018861",
        "note": "銀級環保旅館",
        "county": "臺南市",
        "town": "仁德區",
        "village": "-"
    },
    {
        "serialnumber": "",
        "name": "台南老爺行旅",
        "address": "臺南市東區中華東路一段368號1樓、6-10樓",
        "phone": "(06)2361680#301",
        "latitude": "22.98989403",
        "longitude": "120.2333014",
        "note": "銀級環保旅館",
        "county": "臺南市",
        "town": "東區",
        "village": "-"
    },
    {
        "serialnumber": "",
        "name": "和逸·台南西門館",
        "address": "臺南市中西區西門路一段658之2號4樓至13樓",
        "phone": "(06)7026685",
        "latitude": "22.98734498",
        "longitude": "120.198365",
        "note": "銀級環保旅館",
        "county": "臺南市",
        "town": "中西區",
        "village": "-"
    },
    {
        "serialnumber": "",
        "name": "墾丁夏都沙灘酒店",
        "address": "屏東縣恆春鎮墾丁路451號",
        "phone": "(0910)371823",
        "latitude": "21.94504985",
        "longitude": "120.7923101",
        "note": "銀級環保旅館",
        "county": "屏東縣",
        "town": "恆春鎮",
        "village": "-"
    },
    {
        "serialnumber": "",
        "name": "富信大飯店",
        "address": "新北市汐止區大同路一段152號",
        "phone": "(02)26416422#5112",
        "latitude": "25.05545154",
        "longitude": "121.631994",
        "note": "金級環保旅館",
        "county": "新北市",
        "town": "汐止區",
        "village": "-"
    },
    {
        "serialnumber": "",
        "name": "小叮噹科學遊樂區生活大師會館",
        "address": "新竹縣新豐鄉松柏村康和路199號",
        "phone": "(03)5592132",
        "latitude": "24.86920197",
        "longitude": "120.98002487",
        "note": "銅級環保旅館",
        "county": "新竹縣",
        "town": "新豐鄉",
        "village": "-"
    },
    {
        "serialnumber": "",
        "name": "台北新板希爾頓酒店",
        "address": "新北市板橋區民權路88號、88號（2至31樓）90號",
        "phone": "(02)29583000#7702",
        "latitude": "25.01141762",
        "longitude": "121.4624318",
        "note": "金級環保旅館",
        "county": "新北市",
        "town": "板橋區",
        "village": "-"
    },
    {
        "serialnumber": "",
        "name": "趣淘漫旅-台北 Hotel Cham Cham Taipei",
        "address": "新北市板橋區中山路1段139號(1至2層)、139號4樓至20樓",
        "phone": "(02)29583000#7701",
        "latitude": "25.01126104",
        "longitude": "121.46276335",
        "note": "金級環保旅館",
        "county": "新北市",
        "town": "板橋區",
        "village": "-"
    },
    {
        "serialnumber": "",
        "name": "兆品酒店",
        "address": "嘉義市文化路257號B2-9F",
        "phone": "(05)2292883#3130",
        "latitude": "23.4833963",
        "longitude": "120.44864678",
        "note": "金級環保旅館",
        "county": "嘉義市",
        "town": "東區",
        "village": "-"
    },
    {
        "serialnumber": "",
        "name": "台灣糖業股份有限公司池上牧野渡假村",
        "address": "臺東縣池上鄉新興村新興110號",
        "phone": "(089)862736#1001",
        "latitude": "23.10578184",
        "longitude": "121.1967386",
        "note": "銅級環保旅館",
        "county": "臺東縣",
        "town": "池上鄉",
        "village": "-"
    },
    {
        "serialnumber": "",
        "name": "北投麗禧溫泉酒店",
        "address": "臺北市北投區幽雅路30號",
        "phone": "(02)28967799#738",
        "latitude": "25.13777946",
        "longitude": "121.51508107",
        "note": "金級環保旅館",
        "county": "臺北市",
        "town": "北投區",
        "village": "-"
    },
    {
        "serialnumber": "",
        "name": "迎曦大飯店",
        "address": "新竹市東區親仁里文化街10號2-10樓",
        "phone": "(03)5347266#124",
        "latitude": "24.8061399",
        "longitude": "120.9713894",
        "note": "銅級環保旅館",
        "county": "新竹市",
        "town": "東區",
        "village": "-"
    },
    {
        "serialnumber": "",
        "name": "三好國際酒店",
        "address": "雲林縣斗六市斗六五路35號",
        "phone": "(05)5510999#1500",
        "latitude": "23.7168074",
        "longitude": "120.5342592",
        "note": "銀級環保旅館",
        "county": "雲林縣",
        "town": "斗六市",
        "village": "-"
    },
    {
        "serialnumber": "",
        "name": "台北中山九昱希爾頓逸林酒店",
        "address": "臺北市中山區中山北路一段121巷1之1號, 121巷1號1樓至14樓",
        "phone": "(02)66253281#專線",
        "latitude": "25.05141282",
        "longitude": "121.52259395",
        "note": "銅級環保旅館",
        "county": "臺北市",
        "town": "中山區",
        "village": "-"
    },
    {
        "serialnumber": "",
        "name": "高雄圓山大飯店",
        "address": "高雄市鳥松區圓山路2號",
        "phone": "(07)3706007#519",
        "latitude": "22.65690445",
        "longitude": "120.34430931",
        "note": "銀級環保旅館",
        "county": "高雄市",
        "town": "鳥松區",
        "village": "-"
    },
    {
        "serialnumber": "",
        "name": "長榮桂冠酒店(基隆)",
        "address": "基隆市中正區中正路62號之1",
        "phone": "(02)24279988",
        "latitude": "25.13515432",
        "longitude": "121.746306",
        "note": "銀級環保旅館",
        "county": "基隆市",
        "town": "中正區",
        "village": "-"
    },
    {
        "serialnumber": "",
        "name": "澎湖福朋喜來登酒店",
        "address": "澎湖縣馬公市新店路197號",
        "phone": "(06)9279955#3701",
        "latitude": "23.56821628",
        "longitude": "119.57584404",
        "note": "金級環保旅館",
        "county": "澎湖縣",
        "town": "馬公市",
        "village": "-"
    },
    {
        "serialnumber": "",
        "name": "富光大旅社",
        "address": "屏東縣屏東市公園路19-7號",
        "phone": "(08)7345656",
        "latitude": "22.673401",
        "longitude": "120.492768",
        "note": "銅級環保旅館",
        "county": "屏東縣",
        "town": "屏東市",
        "village": "-"
    },
    {
        "serialnumber": "",
        "name": "福容大飯店 墾丁",
        "address": "屏東縣恆春鎮船帆路1000號",
        "phone": "(08)8856969#340",
        "latitude": "21.9371424",
        "longitude": "120.8167594",
        "note": "銀級環保旅館",
        "county": "屏東縣",
        "town": "恆春鎮",
        "village": "-"
    },
    {
        "serialnumber": "",
        "name": "基拉耳景觀民宿",
        "address": "桃園市復興區溪口路16巷29號",
        "phone": "(02)23965188#594",
        "latitude": "24.80532879",
        "longitude": "121.34743423",
        "note": "銅級環保旅館",
        "county": "桃園市",
        "town": "復興區",
        "village": "-"
    },
    {
        "serialnumber": "",
        "name": "星漾商旅",
        "address": "臺中市北區錦南街17號,錦新街30號4樓至9樓,錦新街32號4樓至9樓",
        "phone": "(04)22289008",
        "latitude": "24.1534689",
        "longitude": "120.6880471",
        "note": "銀級環保旅館",
        "county": "臺中市",
        "town": "北區",
        "village": "-"
    },
    {
        "serialnumber": "",
        "name": "泰安觀止溫泉會館",
        "address": "苗栗縣泰安鄉錦水村圓墩58-7號",
        "phone": "(037)941951#527",
        "latitude": "24.46764981",
        "longitude": "120.95187615",
        "note": "銀級環保旅館",
        "county": "苗栗縣",
        "town": "泰安鄉",
        "village": "-"
    },
    {
        "serialnumber": "",
        "name": "台北士林萬麗酒店",
        "address": "臺北市士林區中山北路五段470巷8號",
        "phone": "(02)88612389",
        "latitude": "25.0931135",
        "longitude": "121.5290463",
        "note": "銀級環保旅館",
        "county": "臺北市",
        "town": "士林區",
        "village": "-"
    },
    {
        "serialnumber": "",
        "name": "新竹安捷國際酒店",
        "address": "新竹縣竹北市復興三路二段168號14樓-18樓",
        "phone": "(03)6209777#660",
        "latitude": "24.8076245",
        "longitude": "121.0383102",
        "note": "銅級環保旅館",
        "county": "新竹縣",
        "town": "竹北市",
        "village": "-"
    },
    {
        "serialnumber": "",
        "name": "享沐時光",
        "address": "苗栗縣苑裡鎮石鎮里錦山8-1,8-2號",
        "phone": "(037)742878#124",
        "latitude": "24.419876",
        "longitude": "120.690116",
        "note": "銀級環保旅館",
        "county": "苗栗縣",
        "town": "苑裡鎮",
        "village": "-"
    },
    {
        "serialnumber": "",
        "name": "寒居酒店",
        "address": "臺北市中山區松江路116號1樓至9樓",
        "phone": "(02)66008000#8886",
        "latitude": "25.0516406",
        "longitude": "121.5326451",
        "note": "金級環保旅館",
        "county": "臺北市",
        "town": "中山區",
        "village": "-"
    },
    {
        "serialnumber": "",
        "name": "城市商旅德立莊博愛館",
        "address": "高雄市三民區博愛一路338號地上1至10樓",
        "phone": "(07)3238777#9301",
        "latitude": "22.6503854",
        "longitude": "120.3037879",
        "note": "銅級環保旅館",
        "county": "高雄市",
        "town": "三民區",
        "village": "-"
    },
    {
        "serialnumber": "",
        "name": "台北W飯店",
        "address": "臺北市信義區忠孝東路五段10號",
        "phone": "(02)77038765",
        "latitude": "25.0413679",
        "longitude": "121.5652303",
        "note": "銀級環保旅館",
        "county": "臺北市",
        "town": "信義區",
        "village": "-"
    },
    {
        "serialnumber": "",
        "name": "福容大飯店 高雄",
        "address": "高雄市鹽埕區五福四路45號",
        "phone": "(07)5317777#7782",
        "latitude": "22.621363",
        "longitude": "120.287711",
        "note": "金級環保旅館",
        "county": "高雄市",
        "town": "鹽埕區",
        "village": "-"
    },
    {
        "serialnumber": "",
        "name": "嘉義富野渡假酒店",
        "address": "嘉義縣民雄鄉三興村升學一街3、5、7、9、11、13、15、17、19、21、23、25、27號",
        "phone": "(05)2721688",
        "latitude": "23.5581022",
        "longitude": "120.4693147",
        "note": "銀級環保旅館",
        "county": "嘉義縣",
        "town": "民雄鄉",
        "village": "-"
    },
    {
        "serialnumber": "",
        "name": "礁溪老爺酒店",
        "address": "宜蘭縣礁溪鄉大忠村五峰路69號、69-1號",
        "phone": "(03)9885211#8006",
        "latitude": "24.8267891",
        "longitude": "121.7567675",
        "note": "金級環保旅館",
        "county": "宜蘭縣",
        "town": "礁溪鄉",
        "village": "-"
    },
    {
        "serialnumber": "",
        "name": "仁義湖岸大酒店",
        "address": "嘉義縣番路鄉內甕村後坑仔35號",
        "phone": "(05)2769388",
        "latitude": "23.458313",
        "longitude": "120.501407",
        "note": "銀級環保旅館",
        "county": "嘉義縣",
        "town": "番路鄉",
        "village": "-"
    },
    {
        "serialnumber": "",
        "name": "尊爵天際大飯店",
        "address": "桃園市蘆竹區南崁路一段108號",
        "phone": "(03)2228100#6081",
        "latitude": "25.0519676",
        "longitude": "121.2880531",
        "note": "銀級環保旅館",
        "county": "桃園市",
        "town": "蘆竹區",
        "village": "-"
    },
    {
        "serialnumber": "",
        "name": "娜路彎銀河酒店",
        "address": "臺東縣台東市豐興路66號",
        "phone": "(089)225000#8263",
        "latitude": "22.7647378",
        "longitude": "121.1396095",
        "note": "金級環保旅館",
        "county": "臺東縣",
        "town": "臺東市",
        "village": "-"
    }
]