[
    {
        "restid": "2",
        "name": "TINA廚房-桃園八德店",
        "address": "桃園市八德區興豐路1315號",
        "phone": "03-3650329#",
        "mobile": "",
        "latitude": "24.942325",
        "longitude": "121.311165",
        "city": "桃園市"
    },
    {
        "restid": "3",
        "name": "TINA廚房－桃園大溪店",
        "address": "桃園市大溪區瑞安路一段175巷55號",
        "phone": "03-3072939#",
        "mobile": "",
        "latitude": "24.887605",
        "longitude": "121.280303",
        "city": "桃園市"
    },
    {
        "restid": "4",
        "name": "飛牛牧場-樂活餐廳",
        "address": "苗栗縣通霄鎮南和里166號",
        "phone": "037-782999#",
        "mobile": "",
        "latitude": "24.440693",
        "longitude": "120.741934",
        "city": "苗栗縣"
    },
    {
        "restid": "5",
        "name": "西湖渡假村－御花苑中餐廳",
        "address": "苗栗縣三義鄉西湖村西湖11號",
        "phone": "-",
        "mobile": "",
        "latitude": "24.389665",
        "longitude": "120.760558",
        "city": "苗栗縣"
    },
    {
        "restid": "6",
        "name": "西湖渡假村－麗景中餐廳",
        "address": "苗栗縣三義鄉西湖村西湖11號",
        "phone": "037-876699#",
        "mobile": "",
        "latitude": "24.389665",
        "longitude": "120.760558",
        "city": "苗栗縣"
    },
    {
        "restid": "7",
        "name": "西湖渡假村 West Lake Resortopia",
        "address": "苗栗縣三義鄉西湖村西湖11號",
        "phone": "-",
        "mobile": "",
        "latitude": "24.389665",
        "longitude": "120.760558",
        "city": "苗栗縣"
    },
    {
        "restid": "9",
        "name": "大鋤花間咖啡生態農場",
        "address": "臺南市東山區高原里109之17號",
        "phone": "06-6864350#",
        "mobile": "",
        "latitude": "23.279788",
        "longitude": "120.507473",
        "city": "臺南市"
    },
    {
        "restid": "11",
        "name": "日風小棧小吃部",
        "address": "臺中市西屯區臺灣大道三段99號",
        "phone": "04-22521717#",
        "mobile": "",
        "latitude": "24.161988",
        "longitude": "120.647296",
        "city": "臺中市"
    },
    {
        "restid": "16",
        "name": "屋馬燒肉中港店",
        "address": "臺中市西屯區區台灣大道 3 段 300 號",
        "phone": "04-23121000#",
        "mobile": "",
        "latitude": "24.192233",
        "longitude": "120.612064",
        "city": "臺中市"
    },
    {
        "restid": "40",
        "name": "尊鴻餐飲企業股份有限公司台中分公司(HUN 一中店)",
        "address": "臺中市北區三民路三段 114 號 2樓",
        "phone": "04-22231080#",
        "mobile": "0931200203",
        "latitude": "24.187813",
        "longitude": "120.662558",
        "city": "臺中市"
    },
    {
        "restid": "43",
        "name": "新月梧桐-國美店",
        "address": "臺中市西區五權西三街 123 號",
        "phone": "04-23783181#",
        "mobile": "",
        "latitude": "24.1336",
        "longitude": "120.663231",
        "city": "臺中市"
    },
    {
        "restid": "44",
        "name": "滬舍餘味餐館",
        "address": "臺中市南屯區公益路二段 537 號",
        "phone": "04-22586111#",
        "mobile": "",
        "latitude": "24.151133",
        "longitude": "120.635769",
        "city": "臺中市"
    },
    {
        "restid": "45",
        "name": "漫森珈琲",
        "address": "臺中市和平區東關路一段 200 號之 8",
        "phone": "-",
        "mobile": "",
        "latitude": "24.191801",
        "longitude": "121.015074",
        "city": "臺中市"
    },
    {
        "restid": "46",
        "name": "熱浪島南洋蔬食茶堂",
        "address": "臺中市南屯區向上路三段 536 號",
        "phone": "-",
        "mobile": "",
        "latitude": "24.145305",
        "longitude": "120.62424",
        "city": "臺中市"
    },
    {
        "restid": "47",
        "name": "TT TAIKO燒肉",
        "address": "臺中市沙鹿區光華路 508 號",
        "phone": "-",
        "mobile": "",
        "latitude": "24.243689",
        "longitude": "120.570317",
        "city": "臺中市"
    },
    {
        "restid": "48",
        "name": "醉春園 餐廳",
        "address": "臺中市潭子區中山路 2 段 382 號",
        "phone": "-",
        "mobile": "",
        "latitude": "24.214037",
        "longitude": "120.705434",
        "city": "臺中市"
    },
    {
        "restid": "52",
        "name": "頤養膳房有限公司",
        "address": "臺中市西屯區福雅路 60 號",
        "phone": "-",
        "mobile": "",
        "latitude": "24.183876",
        "longitude": "120.618679",
        "city": "臺中市"
    },
    {
        "restid": "18",
        "name": "長榮桂冠酒店咖啡廳",
        "address": "臺中市西屯區台灣大道二段 666 號",
        "phone": "-",
        "mobile": "",
        "latitude": "24.159105",
        "longitude": "120.657228",
        "city": "臺中市"
    },
    {
        "restid": "19",
        "name": "屋馬燒肉文心店",
        "address": "臺中市南屯區文心路一段 436 號",
        "phone": "04-23106699",
        "mobile": "",
        "latitude": "24.165776",
        "longitude": "120.644605",
        "city": "臺中市"
    },
    {
        "restid": "20",
        "name": "屋馬燒肉園邸店",
        "address": "臺中市西區公益路 111 號 1 樓",
        "phone": "04-23013000#",
        "mobile": "",
        "latitude": "24.151035",
        "longitude": "120.647077",
        "city": "臺中市"
    },
    {
        "restid": "23",
        "name": "都市部落有限公司",
        "address": "臺中市西屯區青海路 568 號",
        "phone": "-",
        "mobile": "",
        "latitude": "24.043284",
        "longitude": "120.695246",
        "city": "臺中市"
    },
    {
        "restid": "24",
        "name": "菇神餐飲有限公司",
        "address": "臺中市新社區協中街 287 號",
        "phone": "-",
        "mobile": "",
        "latitude": "24.200633",
        "longitude": "120.799297",
        "city": "臺中市"
    },
    {
        "restid": "25",
        "name": "菇菇部屋",
        "address": "臺中市新社區協中街 189-1 號",
        "phone": "04-25822598#",
        "mobile": "",
        "latitude": "24.200633",
        "longitude": "120.799297",
        "city": "臺中市"
    },
    {
        "restid": "27",
        "name": "光頭廚房",
        "address": "金門縣金城鎮民族路211號",
        "phone": "082-322617#",
        "mobile": "",
        "latitude": "24.43014",
        "longitude": "118.316683",
        "city": "金門縣"
    },
    {
        "restid": "28",
        "name": "TAIKO 太鼓",
        "address": "臺中市沙鹿區光華路 316 號",
        "phone": "04-26631188#",
        "mobile": "",
        "latitude": "24.241596",
        "longitude": "120.565113",
        "city": "臺中市"
    },
    {
        "restid": "29",
        "name": "台中日月千禧酒店-旅覓酒吧",
        "address": "臺中市西屯區市政路 77 號",
        "phone": "04-37056066#",
        "mobile": "",
        "latitude": "24.15687",
        "longitude": "120.641982",
        "city": "臺中市"
    },
    {
        "restid": "31",
        "name": "三層樓芋頭餐館",
        "address": "金門縣烈嶼鄉黃厝23之1號",
        "phone": "082-362415#",
        "mobile": "",
        "latitude": "24.44648",
        "longitude": "118.252201",
        "city": "金門縣"
    },
    {
        "restid": "32",
        "name": "台中日月千禧酒店-饗樂全日餐廳",
        "address": "臺中市西屯區市政路 77 號",
        "phone": "04-37056000#",
        "mobile": "",
        "latitude": "24.15687",
        "longitude": "120.641982",
        "city": "臺中市"
    },
    {
        "restid": "71",
        "name": "龍園餐廳",
        "address": "苗栗縣苑裡鎮中山路322號",
        "phone": "-",
        "mobile": "",
        "latitude": "24.447862",
        "longitude": "120.655407",
        "city": "苗栗縣"
    },
    {
        "restid": "72",
        "name": "蒸烹派客家美食餐廳",
        "address": "苗栗縣三義鄉雙湖村13鄰雙湖5之5號",
        "phone": "037-876482#",
        "mobile": "",
        "latitude": "24.422736",
        "longitude": "120.774551",
        "city": "苗栗縣"
    },
    {
        "restid": "81",
        "name": "中華醫事科技大學-健康樂活餐廳",
        "address": "臺南市仁德區文華一街89號",
        "phone": "06-2674567#",
        "mobile": "",
        "latitude": "22.960978",
        "longitude": "120.24336",
        "city": "臺南市"
    },
    {
        "restid": "83",
        "name": "醬醬披薩Big John Pizza",
        "address": "臺南市東區中華東路三段351號",
        "phone": "-#",
        "mobile": "0932868488",
        "latitude": "22.973831",
        "longitude": "120.222631",
        "city": "臺南市"
    },
    {
        "restid": "108",
        "name": "宜蘭安永樂活股份有限公司（安永心食館）",
        "address": "宜蘭縣蘇澳鎮中山路2段415號",
        "phone": "03-9953399#",
        "mobile": "",
        "latitude": "24.614903",
        "longitude": "121.817919",
        "city": "宜蘭縣"
    },
    {
        "restid": "109",
        "name": "握協成股份有限公司（握咖啡Oh!Cafe)",
        "address": "宜蘭縣羅東鎮純精路三段453號",
        "phone": "03-9532377#",
        "mobile": "",
        "latitude": "24.688212",
        "longitude": "121.770256",
        "city": "宜蘭縣"
    },
    {
        "restid": "111",
        "name": "太平山國家森林遊樂區太平山莊餐廳",
        "address": "宜蘭縣大同鄉太平村58-1號",
        "phone": "03-9809806#",
        "mobile": "",
        "latitude": "24.492345",
        "longitude": "121.536542",
        "city": "宜蘭縣"
    },
    {
        "restid": "112",
        "name": "伊丼食堂",
        "address": "宜蘭縣羅東鎮林森路155號",
        "phone": "-#",
        "mobile": "0912972936",
        "latitude": "24.680154",
        "longitude": "121.766874",
        "city": "宜蘭縣"
    },
    {
        "restid": "114",
        "name": "蜻蜓石",
        "address": "宜蘭縣頭城鎮仙公路201巷65號",
        "phone": "-#",
        "mobile": "0928486999",
        "latitude": "24.878539",
        "longitude": "121.821843",
        "city": "宜蘭縣"
    },
    {
        "restid": "115",
        "name": "好喫食藝",
        "address": "宜蘭縣冬山鄉冬山路三段136號",
        "phone": "-#",
        "mobile": "0982666258",
        "latitude": "24.655975",
        "longitude": "121.779663",
        "city": "宜蘭縣"
    },
    {
        "restid": "122",
        "name": "翰林茶館桃園中正店",
        "address": "桃園市桃園區中正路20號9樓",
        "phone": "03-3473159#",
        "mobile": "",
        "latitude": "24.989865",
        "longitude": "121.314076",
        "city": "桃園市"
    },
    {
        "restid": "123",
        "name": "百基企業有限公司(桃園店香草工坊)",
        "address": "桃園市桃園區中正路20號9F",
        "phone": "03-3393933#",
        "mobile": "",
        "latitude": "24.989865",
        "longitude": "121.314076",
        "city": "桃園市"
    },
    {
        "restid": "145",
        "name": "天秀山莊",
        "address": "雲林縣古坑鄉華山村華山路19-6號",
        "phone": "05-5901978#",
        "mobile": "",
        "latitude": "23.593191",
        "longitude": "120.601377",
        "city": "雲林縣"
    },
    {
        "restid": "147",
        "name": "A樂粉親子餐廳",
        "address": "雲林縣斗六市中山路477號",
        "phone": "05-5350007#",
        "mobile": "",
        "latitude": "23.696518",
        "longitude": "120.538146",
        "city": "雲林縣"
    },
    {
        "restid": "148",
        "name": "薇若拉親子音樂餐廳",
        "address": "雲林縣虎尾鎮民主三路2-1號",
        "phone": "05-6322620#",
        "mobile": "",
        "latitude": "23.703046",
        "longitude": "120.435573",
        "city": "雲林縣"
    },
    {
        "restid": "152",
        "name": "林麵舖",
        "address": "雲林縣斗六市中堅西路216-1號",
        "phone": "05-5320607#",
        "mobile": "",
        "latitude": "23.700939",
        "longitude": "120.535313",
        "city": "雲林縣"
    },
    {
        "restid": "153",
        "name": "烹小鮮",
        "address": "雲林縣斗六市八德路88號",
        "phone": "05-5360899#",
        "mobile": "0911759442",
        "latitude": "23.692101",
        "longitude": "120.528532",
        "city": "雲林縣"
    },
    {
        "restid": "154",
        "name": "九久醇義麵坊",
        "address": "雲林縣北港鎮公民路37號",
        "phone": "05-7826727#",
        "mobile": "",
        "latitude": "23.569337",
        "longitude": "120.304198",
        "city": "雲林縣"
    },
    {
        "restid": "155",
        "name": "阿墨風尚料理",
        "address": "嘉義縣太保市棒球ㄧ街8號",
        "phone": "05-3625701#",
        "mobile": "",
        "latitude": "23.455871",
        "longitude": "120.29345",
        "city": "嘉義縣"
    },
    {
        "restid": "156",
        "name": "采荷居人文茶館",
        "address": "嘉義縣朴子市山通路24之13號",
        "phone": "05-3661255#",
        "mobile": "",
        "latitude": "23.467227",
        "longitude": "120.249149",
        "city": "嘉義縣"
    },
    {
        "restid": "157",
        "name": "板陶窯剪黏主題餐廳",
        "address": "嘉義縣新港鄉嘉義縣板頭村板頭厝45號之1、45之2",
        "phone": "05-7810832#",
        "mobile": "",
        "latitude": "23.5656",
        "longitude": "120.320452",
        "city": "嘉義縣"
    },
    {
        "restid": "160",
        "name": "五妹的店",
        "address": "嘉義縣民雄鄉北斗村北勢子20-30",
        "phone": "-",
        "mobile": "",
        "latitude": "23.535331",
        "longitude": "120.458756",
        "city": "嘉義縣"
    },
    {
        "restid": "161",
        "name": "北歐工坊複合式餐廳",
        "address": "嘉義縣朴子市安福里天星新村116號附1",
        "phone": "05-3708320#",
        "mobile": "",
        "latitude": "23.469156",
        "longitude": "120.256034",
        "city": "嘉義縣"
    },
    {
        "restid": "164",
        "name": "東昇餐廳",
        "address": "屏東縣東港鎮光復路二段66號",
        "phone": "08-8323112#",
        "mobile": "",
        "latitude": "22.467459",
        "longitude": "120.452988",
        "city": "屏東縣"
    },
    {
        "restid": "86",
        "name": "台南維悅酒店中餐廳",
        "address": "臺南市安平區慶平路539號",
        "phone": "06-2950888#",
        "mobile": "",
        "latitude": "22.997178",
        "longitude": "120.171561",
        "city": "臺南市"
    },
    {
        "restid": "88",
        "name": "龍之園餐廳",
        "address": "宜蘭縣五結鄉親河路一段166號",
        "phone": "03-9600287#",
        "mobile": "",
        "latitude": "24.668323",
        "longitude": "121.81899",
        "city": "宜蘭縣"
    },
    {
        "restid": "89",
        "name": "欣瓏徠海鮮餐廳",
        "address": "宜蘭縣五結鄉親河路二段236號",
        "phone": "-#",
        "mobile": "0933216227",
        "latitude": "24.673791",
        "longitude": "121.805768",
        "city": "宜蘭縣"
    },
    {
        "restid": "92",
        "name": "茶宴飲茶美食館",
        "address": "宜蘭縣羅東鎮倉前路30號",
        "phone": "03-9577757#",
        "mobile": "",
        "latitude": "24.680212",
        "longitude": "121.774038",
        "city": "宜蘭縣"
    },
    {
        "restid": "94",
        "name": "年年小館",
        "address": "宜蘭縣羅東鎮陽明路126號",
        "phone": "03-9567858#",
        "mobile": "",
        "latitude": "24.678768",
        "longitude": "121.776795",
        "city": "宜蘭縣"
    },
    {
        "restid": "97",
        "name": "三隻貓咖啡",
        "address": "宜蘭縣宜蘭市陽明路277號",
        "phone": "03-9383088#",
        "mobile": "0932000337",
        "latitude": "24.668693",
        "longitude": "121.767251",
        "city": "宜蘭縣"
    },
    {
        "restid": "99",
        "name": "頭城餐飲股份有限公司（頭城農場）",
        "address": "宜蘭縣頭城鎮更新路125-1號",
        "phone": "-#",
        "mobile": "0905000059",
        "latitude": "24.907738",
        "longitude": "121.852261",
        "city": "宜蘭縣"
    },
    {
        "restid": "102",
        "name": "一佳村養生餐廳",
        "address": "宜蘭縣冬山鄉中山村中城二路58巷11號",
        "phone": "-",
        "mobile": "",
        "latitude": "24.627032",
        "longitude": "121.748741",
        "city": "宜蘭縣"
    },
    {
        "restid": "105",
        "name": "振誠企業社（OBar 歐吧廚房）",
        "address": "宜蘭縣羅東鎮中正路198號2樓",
        "phone": "-#",
        "mobile": "0921526583",
        "latitude": "24.677488",
        "longitude": "121.772008",
        "city": "宜蘭縣"
    },
    {
        "restid": "435",
        "name": "清木屋",
        "address": "嘉義縣朴子市平和里市東路40號",
        "phone": "05-3797768#",
        "mobile": "0935060683",
        "latitude": "23.465471",
        "longitude": "120.245487",
        "city": "嘉義縣"
    },
    {
        "restid": "436",
        "name": "圓砌鴛鴦升降鍋物",
        "address": "雲林縣斗六市莊敬路38號",
        "phone": "05-5338666#",
        "mobile": "",
        "latitude": "23.700254",
        "longitude": "120.544231",
        "city": "雲林縣"
    },
    {
        "restid": "437",
        "name": "鄒風館",
        "address": "嘉義縣阿里山鄉達邦村3鄰65號",
        "phone": "05-2511863#",
        "mobile": "",
        "latitude": "23.454747",
        "longitude": "120.750103",
        "city": "嘉義縣"
    },
    {
        "restid": "440",
        "name": "億富生活飲食",
        "address": "嘉義縣朴子市祥和一路西段41號",
        "phone": "05-3625805#",
        "mobile": "",
        "latitude": "23.460003",
        "longitude": "120.286787",
        "city": "嘉義縣"
    },
    {
        "restid": "402",
        "name": "琉球一番壽司",
        "address": "屏東縣琉球鄉中福村觀光港路30-3號",
        "phone": "08-8614826#",
        "mobile": "",
        "latitude": "22.350463",
        "longitude": "120.384602",
        "city": "屏東縣"
    },
    {
        "restid": "404",
        "name": "魚缸珈琲館",
        "address": "新北市蘆洲區三民路78號",
        "phone": "02-82828350#",
        "mobile": "",
        "latitude": "25.084123",
        "longitude": "121.475129",
        "city": "新北市"
    },
    {
        "restid": "405",
        "name": "雙溪平林休閒農場",
        "address": "新北市雙溪區平林里外平林35號",
        "phone": "02-4934016#",
        "mobile": "0921931032",
        "latitude": "25.037272",
        "longitude": "121.8535",
        "city": "新北市"
    },
    {
        "restid": "406",
        "name": "萊點心港式鮮蔬料理",
        "address": "高雄市鼓山區篤敬路65號",
        "phone": "07-5535876#",
        "mobile": "",
        "latitude": "22.665379",
        "longitude": "120.302364",
        "city": "高雄市"
    },
    {
        "restid": "385",
        "name": "上島食品股份有限公司(奇麗灣珍奶文化館)",
        "address": "宜蘭縣蘇澳鎮頂強路23號",
        "phone": "03-9909966#",
        "mobile": "0968927996",
        "latitude": "24.634188",
        "longitude": "121.836777",
        "city": "宜蘭縣"
    },
    {
        "restid": "386",
        "name": "明溱禪悅坊",
        "address": "宜蘭縣礁溪鄉武暖路121之號1樓",
        "phone": "-#",
        "mobile": "0950578588",
        "latitude": "24.781473",
        "longitude": "121.778896",
        "city": "宜蘭縣"
    },
    {
        "restid": "387",
        "name": "義焗兩得",
        "address": "桃園市桃園區成功路二段187號1樓",
        "phone": "03-3360533#",
        "mobile": "",
        "latitude": "24.995441",
        "longitude": "121.320517",
        "city": "桃園市"
    },
    {
        "restid": "388",
        "name": "公雞生蛋複合式蔬食",
        "address": "桃園市大園區領航北路四段360號",
        "phone": "-#",
        "mobile": "0909605818",
        "latitude": "25.022883",
        "longitude": "121.22224",
        "city": "桃園市"
    },
    {
        "restid": "390",
        "name": "吚呀Oia美食館",
        "address": "高雄市阿蓮區民生路188號",
        "phone": "07-6319999#",
        "mobile": "",
        "latitude": "22.886213",
        "longitude": "120.325095",
        "city": "高雄市"
    },
    {
        "restid": "391",
        "name": "棲蘭山莊",
        "address": "宜蘭縣大同鄉太平村泰雅路四段6號",
        "phone": "03-9189406#3311",
        "mobile": "0933746909",
        "latitude": "24.580158",
        "longitude": "121.492386",
        "city": "宜蘭縣"
    },
    {
        "restid": "392",
        "name": "明池山莊",
        "address": "宜蘭縣大同鄉英士村明池山莊1號",
        "phone": "03-9894104 #3200",
        "mobile": "0933746909",
        "latitude": "24.653375",
        "longitude": "121.470911",
        "city": "宜蘭縣"
    },
    {
        "restid": "443",
        "name": "嘉義縣政府壽司",
        "address": "嘉義縣太保市安仁里祥和二路東段67號",
        "phone": "05-3625251#",
        "mobile": "",
        "latitude": "23.456693",
        "longitude": "120.297782",
        "city": "嘉義縣"
    },
    {
        "restid": "444",
        "name": "三隻小兔義式冰淇淋餐廳",
        "address": "嘉義市啟明路255號",
        "phone": "05-2765276#",
        "mobile": "",
        "latitude": "23.483755",
        "longitude": "120.463504",
        "city": "嘉義市"
    },
    {
        "restid": "445",
        "name": "鵝媽媽鵝童樂園-愛鵝樂餐廳",
        "address": "雲林縣斗六市嘉新路222號",
        "phone": "05-5351789#",
        "mobile": "",
        "latitude": "23.680987",
        "longitude": "120.552735",
        "city": "雲林縣"
    },
    {
        "restid": "446",
        "name": "青松自在咖啡坊",
        "address": "苗栗縣三義鄉龍騰村外庒20-1號",
        "phone": "037-881666#",
        "mobile": "0928945001",
        "latitude": "24.367958",
        "longitude": "120.78402",
        "city": "苗栗縣"
    },
    {
        "restid": "448",
        "name": "小紅帽義式冰淇淋店",
        "address": "嘉義市興業西路396號",
        "phone": "05-2352016#",
        "mobile": "",
        "latitude": "23.467829",
        "longitude": "120.43666",
        "city": "嘉義市"
    },
    {
        "restid": "424",
        "name": "錦城石頭火鍋",
        "address": "臺南市中西區海安路一段22號",
        "phone": "06-2209200#",
        "mobile": "0911745213",
        "latitude": "22.988068",
        "longitude": "120.195072",
        "city": "臺南市"
    },
    {
        "restid": "427",
        "name": "花田小路",
        "address": "花蓮縣壽豐鄉豐坪村東富街128號",
        "phone": "-#",
        "mobile": "0911669745",
        "latitude": "23.827869",
        "longitude": "121.510965",
        "city": "花蓮縣"
    },
    {
        "restid": "428",
        "name": "櫻田野餐廳",
        "address": "花蓮縣吉安鄉福星七街8號",
        "phone": "03-8540366#",
        "mobile": "0933799417",
        "latitude": "23.960154",
        "longitude": "121.563553",
        "city": "花蓮縣"
    },
    {
        "restid": "429",
        "name": "盈春閣餐廳股份有限公司",
        "address": "金門縣金寧鄉榜林村下后垵17號",
        "phone": "082-320689#",
        "mobile": "",
        "latitude": "24.426888",
        "longitude": "118.329224",
        "city": "金門縣"
    },
    {
        "restid": "430",
        "name": "花盒子飲食生活館(和美店)",
        "address": "彰化縣和美鎮仁安路58號",
        "phone": "04-7562939#",
        "mobile": "0978372225",
        "latitude": "24.107838",
        "longitude": "120.500806",
        "city": "彰化縣"
    },
    {
        "restid": "431",
        "name": "花盒子飲食生活館(北斗店)",
        "address": "彰化縣北斗鎮文苑路一段147號",
        "phone": "04-8885939#",
        "mobile": "0978372225",
        "latitude": "23.875872",
        "longitude": "120.52091",
        "city": "彰化縣"
    },
    {
        "restid": "432",
        "name": "花盒子飲食生活館(彰化店)",
        "address": "彰化縣彰化市南平街54號",
        "phone": "04-7121969#",
        "mobile": "0978372225",
        "latitude": "23.95361",
        "longitude": "120.562753",
        "city": "彰化縣"
    },
    {
        "restid": "433",
        "name": "花盒子飲食生活館(員林店)",
        "address": "彰化縣埔心鄉員林大道七段165號",
        "phone": "04-8285111#",
        "mobile": "0978372225",
        "latitude": "24.107838",
        "longitude": "120.500806",
        "city": "彰化縣"
    },
    {
        "restid": "499",
        "name": "巴適麻辣鍋",
        "address": "澎湖縣馬公市馬公市六合路19號",
        "phone": "06-9261666#",
        "mobile": "0930036668",
        "latitude": "23.571881",
        "longitude": "119.581453",
        "city": "澎湖縣"
    },
    {
        "restid": "500",
        "name": "巴適經典麻辣鍋",
        "address": "澎湖縣馬公市中華路329號1樓",
        "phone": "06-9269968#",
        "mobile": "",
        "latitude": "23.571793",
        "longitude": "119.57883",
        "city": "澎湖縣"
    },
    {
        "restid": "501",
        "name": "雛菊餐桌",
        "address": "澎湖縣馬公市三多路353號",
        "phone": "06-9275377#",
        "mobile": "0987956722",
        "latitude": "23.576947",
        "longitude": "119.572804",
        "city": "澎湖縣"
    },
    {
        "restid": "503",
        "name": "義美見學餐廳",
        "address": "桃園市大園區航站南路9號B2美食廣場",
        "phone": "03-3985016#",
        "mobile": "",
        "latitude": "25.077078",
        "longitude": "121.232515",
        "city": "桃園市"
    },
    {
        "restid": "504",
        "name": "Vie a la 鄉食村活 restaurant & cafe",
        "address": "彰化縣彰化市永福街51號",
        "phone": "04-7200282#",
        "mobile": "",
        "latitude": "24.079478",
        "longitude": "120.543828",
        "city": "彰化縣"
    },
    {
        "restid": "481",
        "name": "Mos摩斯漢堡(北榮美食街)",
        "address": "臺北市北投區石牌路二段201號生活廣場",
        "phone": "02-28710185#",
        "mobile": "",
        "latitude": "25.119181",
        "longitude": "121.519166",
        "city": "臺北市"
    },
    {
        "restid": "482",
        "name": "十勝石燒(北榮美食街)",
        "address": "臺北市北投區石牌路二段201號生活廣場",
        "phone": "-#",
        "mobile": "0919329057",
        "latitude": "25.119181",
        "longitude": "121.519166",
        "city": "臺北市"
    },
    {
        "restid": "483",
        "name": "小南門\/小南門點心世界(北榮美食街)",
        "address": "臺北市北投區石牌路二段201號生活廣場",
        "phone": "02-28751220#",
        "mobile": "",
        "latitude": "25.119181",
        "longitude": "121.519166",
        "city": "臺北市"
    },
    {
        "restid": "484",
        "name": "甲大鴻港式燒臘(北榮美食街)",
        "address": "臺北市北投區石牌路二段201號生活廣場",
        "phone": "-#",
        "mobile": "0976698108",
        "latitude": "25.119181",
        "longitude": "121.519166",
        "city": "臺北市"
    },
    {
        "restid": "487",
        "name": "西雅圖極品咖啡(北榮美食街)",
        "address": "臺北市北投區石牌路二段201號生活廣場",
        "phone": "02-28760276#",
        "mobile": "",
        "latitude": "25.119181",
        "longitude": "121.519166",
        "city": "臺北市"
    },
    {
        "restid": "491",
        "name": "洪祖師擔仔麵(北榮美食街)",
        "address": "臺北市北投區石牌路二段201號生活廣場",
        "phone": "-#",
        "mobile": "0920283013",
        "latitude": "25.119181",
        "longitude": "121.519166",
        "city": "臺北市"
    },
    {
        "restid": "492",
        "name": "皇家傳承(北榮美食街)",
        "address": "臺北市北投區石牌路二段201號生活廣場",
        "phone": "02-28747328#",
        "mobile": "",
        "latitude": "25.119181",
        "longitude": "121.519166",
        "city": "臺北市"
    },
    {
        "restid": "493",
        "name": "紅豆食府(北榮美食街)",
        "address": "臺北市北投區石牌路二段201號生活廣場",
        "phone": "02-28713068#",
        "mobile": "",
        "latitude": "25.119181",
        "longitude": "121.519166",
        "city": "臺北市"
    },
    {
        "restid": "494",
        "name": "義美見學餐廳(北榮美食街)",
        "address": "臺北市北投區石牌路二段201號生活廣場",
        "phone": "02-28749302#",
        "mobile": "",
        "latitude": "25.119181",
        "longitude": "121.519166",
        "city": "臺北市"
    },
    {
        "restid": "537",
        "name": "UCC Café Mercado (忠孝SOGO店)",
        "address": "臺北市大安區忠孝東路四段45號B2",
        "phone": "02-27416800#",
        "mobile": "",
        "latitude": "25.041902",
        "longitude": "121.544883",
        "city": "臺北市"
    },
    {
        "restid": "538",
        "name": "皇家哥本哈根咖啡輕食複合店 (忠孝SOGO店)",
        "address": "臺北市大安區忠孝東路四段45號4F",
        "phone": "02-27113362#",
        "mobile": "",
        "latitude": "25.041902",
        "longitude": "121.544883",
        "city": "臺北市"
    },
    {
        "restid": "547",
        "name": "共感日式鍋品 Mega Japanese Hot Pot",
        "address": "嘉義市西區仁愛路560號",
        "phone": "05-2160345#",
        "mobile": "0972815093",
        "latitude": "23.478059",
        "longitude": "120.44204",
        "city": "嘉義市"
    },
    {
        "restid": "551",
        "name": "笠園有機農園",
        "address": "苗栗縣三義鄉鯉魚潭村聖王崎下18-1號",
        "phone": "03-7881688#",
        "mobile": "0912328295",
        "latitude": "24.353657",
        "longitude": "120.751966",
        "city": "苗栗縣"
    },
    {
        "restid": "554",
        "name": "FM泰雅西餐廳 Cafe",
        "address": "桃園市大溪區瑞安路一段168號(1F)",
        "phone": "03-3803999#",
        "mobile": "",
        "latitude": "24.888124",
        "longitude": "121.278758",
        "city": "桃園市"
    },
    {
        "restid": "558",
        "name": "影食Time to Eat",
        "address": "彰化縣彰化市華山路273巷15號",
        "phone": "04-7281566#",
        "mobile": "",
        "latitude": "24.074784",
        "longitude": "120.535685",
        "city": "彰化縣"
    },
    {
        "restid": "129",
        "name": "財團法人新竹市私立愛恆啟智中心(慢飛兒庇護工廠)",
        "address": "新竹市北區東大路四段32號",
        "phone": "03-5366780#",
        "mobile": "0933975202",
        "latitude": "24.841512",
        "longitude": "120.93619",
        "city": "新竹市"
    },
    {
        "restid": "130",
        "name": "綠舍奇蹟健康蔬食餐廳",
        "address": "新竹市北區武陵路30號1樓",
        "phone": "03-5322727#",
        "mobile": "0938323896",
        "latitude": "24.816068",
        "longitude": "120.963306",
        "city": "新竹市"
    },
    {
        "restid": "131",
        "name": "實物生活 x 攪攪雜食舖  Real Things x la-la-e",
        "address": "新竹縣竹北市勝利五路197號",
        "phone": "03-5313923#",
        "mobile": "",
        "latitude": "24.815842",
        "longitude": "120.967493",
        "city": "新竹縣"
    },
    {
        "restid": "135",
        "name": "邊界驛站新豐店",
        "address": "新竹縣新豐鄉鳳坑村坑子口569-7號",
        "phone": "03-5575577#",
        "mobile": "",
        "latitude": "24.924236",
        "longitude": "120.975239",
        "city": "新竹縣"
    },
    {
        "restid": "136",
        "name": "富嘉休閒奧萬大餐廳",
        "address": "南投縣仁愛鄉大安路150號",
        "phone": "04-92974988#",
        "mobile": "",
        "latitude": "23.960111",
        "longitude": "121.130059",
        "city": "南投縣"
    },
    {
        "restid": "137",
        "name": "springjam果醬店",
        "address": "南投縣埔里鎮信義路121號",
        "phone": "04-92983278#",
        "mobile": "",
        "latitude": "23.973008",
        "longitude": "120.975562",
        "city": "南投縣"
    },
    {
        "restid": "138",
        "name": "菲比棧冷飲店",
        "address": "雲林縣斗六市民生南路11號",
        "phone": "05-5341915#",
        "mobile": "",
        "latitude": "23.705755",
        "longitude": "120.536893",
        "city": "雲林縣"
    },
    {
        "restid": "140",
        "name": "海宴休閒農莊",
        "address": "雲林縣古坑鄉桂林村桃源路1-8號",
        "phone": "05-5900218#",
        "mobile": "",
        "latitude": "23.597349",
        "longitude": "120.603894",
        "city": "雲林縣"
    },
    {
        "restid": "141",
        "name": "劍湖山渡假大飯店（限蔚藍西餐廳使用）",
        "address": "雲林縣古坑鄉永光村大湖口67-8號",
        "phone": "-",
        "mobile": "",
        "latitude": "23.615093",
        "longitude": "120.576854",
        "city": "雲林縣"
    },
    {
        "restid": "142",
        "name": "芒果咖啡館",
        "address": "雲林縣莿桐鄉中山路114號",
        "phone": "05-5371355#",
        "mobile": "",
        "latitude": "23.757694",
        "longitude": "120.500226",
        "city": "雲林縣"
    },
    {
        "restid": "144",
        "name": "維野納複合式餐飲",
        "address": "雲林縣古坑鄉桂林村桃源路1-6號",
        "phone": "05-5900203#",
        "mobile": "",
        "latitude": "23.599049",
        "longitude": "120.605536",
        "city": "雲林縣"
    },
    {
        "restid": "186",
        "name": "芭達桑原住民主題餐廳",
        "address": "新北市八里區觀海大道111號",
        "phone": "02-26105300#",
        "mobile": "",
        "latitude": "25.161778",
        "longitude": "121.425567",
        "city": "新北市"
    },
    {
        "restid": "187",
        "name": "雲山水小築民宿",
        "address": "新北市瑞芳區金瓜石石山里山尖路72-1號",
        "phone": "02-24962201#",
        "mobile": "",
        "latitude": "25.114868",
        "longitude": "121.853995",
        "city": "新北市"
    },
    {
        "restid": "189",
        "name": "田中芳園養生食坊",
        "address": "新北市金山區清水路53號",
        "phone": "02-24982385#",
        "mobile": "",
        "latitude": "25.234638",
        "longitude": "121.629178",
        "city": "新北市"
    },
    {
        "restid": "191",
        "name": "猛港海鮮餐廳",
        "address": "新北市永和區永和路一段62號",
        "phone": "02-29286383#",
        "mobile": "",
        "latitude": "25.005939",
        "longitude": "121.513109",
        "city": "新北市"
    },
    {
        "restid": "198",
        "name": "松戶美食館",
        "address": "彰化縣彰化市旭光西路76號",
        "phone": "04-7280091#",
        "mobile": "",
        "latitude": "24.071608",
        "longitude": "120.540702",
        "city": "彰化縣"
    },
    {
        "restid": "199",
        "name": "淘米樂蔬食園地館",
        "address": "彰化縣彰化市寶山路802號",
        "phone": "04-7238689#",
        "mobile": "",
        "latitude": "24.057183",
        "longitude": "120.568149",
        "city": "彰化縣"
    },
    {
        "restid": "200",
        "name": "清心緣食坊",
        "address": "彰化縣彰化市中華西路165號",
        "phone": "04-7622399#",
        "mobile": "",
        "latitude": "24.07227",
        "longitude": "120.531049",
        "city": "彰化縣"
    },
    {
        "restid": "201",
        "name": "陶米人文蔬食",
        "address": "彰化縣彰化市南郭路一段176巷32號",
        "phone": "04-7287805#",
        "mobile": "",
        "latitude": "24.073996",
        "longitude": "120.547307",
        "city": "彰化縣"
    },
    {
        "restid": "202",
        "name": "愛詩蔬食餐館",
        "address": "彰化縣彰化市中正路二段784號",
        "phone": "04-7523569#",
        "mobile": "",
        "latitude": "24.065479",
        "longitude": "120.533713",
        "city": "彰化縣"
    },
    {
        "restid": "222",
        "name": "糖果廚房生活工作室(即糖果廚房食農生活家)",
        "address": "臺南市東區崇學路96巷8弄5號",
        "phone": "-#",
        "mobile": "0929516030",
        "latitude": "22.978662",
        "longitude": "120.223078",
        "city": "臺南市"
    },
    {
        "restid": "223",
        "name": "人中小姐很有事",
        "address": "桃園市桃園區中埔六街199巷15號",
        "phone": "-#",
        "mobile": "0935919305",
        "latitude": "25.019506",
        "longitude": "121.294216",
        "city": "桃園市"
    },
    {
        "restid": "233",
        "name": "找到幸福咖啡店",
        "address": "基隆市中正區中正路559號",
        "phone": "02-24635660#",
        "mobile": "0922210878",
        "latitude": "25.152353",
        "longitude": "121.76913",
        "city": "基隆市"
    },
    {
        "restid": "237",
        "name": "東粄香傳統米食坊",
        "address": "臺東縣成功鎮中華路187號",
        "phone": "-",
        "mobile": "",
        "latitude": "23.101723",
        "longitude": "121.381274",
        "city": "臺東縣"
    },
    {
        "restid": "238",
        "name": "三妹冰淇淋",
        "address": "臺東縣成功鎮中華路187號",
        "phone": "-",
        "mobile": "",
        "latitude": "23.101723",
        "longitude": "121.381274",
        "city": "臺東縣"
    },
    {
        "restid": "203",
        "name": "黃家土雞料理有限公司",
        "address": "彰化縣花壇鄉聽竹街48號",
        "phone": "04-7873331#",
        "mobile": "",
        "latitude": "24.052068",
        "longitude": "120.568304",
        "city": "彰化縣"
    },
    {
        "restid": "204",
        "name": "重興海鮮樓餐廳",
        "address": "彰化縣芳苑鄉王功村漁港路58號",
        "phone": "04-8932050#",
        "mobile": "0933498262",
        "latitude": "23.967824",
        "longitude": "120.341549",
        "city": "彰化縣"
    },
    {
        "restid": "205",
        "name": "兆品酒店嘉義",
        "address": "嘉義市文化路257號",
        "phone": "05-2293998#",
        "mobile": "",
        "latitude": "23.48338",
        "longitude": "120.44871",
        "city": "嘉義市"
    },
    {
        "restid": "206",
        "name": "超吉飯桶",
        "address": "嘉義市新榮路321號",
        "phone": "05-2239511#",
        "mobile": "",
        "latitude": "23.47898",
        "longitude": "120.44409",
        "city": "嘉義市"
    },
    {
        "restid": "207",
        "name": "鈺通大飯店",
        "address": "嘉義市東區維新路7號",
        "phone": "05-2756111#",
        "mobile": "",
        "latitude": "23.479523",
        "longitude": "120.458933",
        "city": "嘉義市"
    },
    {
        "restid": "209",
        "name": "三采田美味廚坊",
        "address": "嘉義市台斗街217號",
        "phone": "05-2763785#",
        "mobile": "",
        "latitude": "23.49517",
        "longitude": "120.45098",
        "city": "嘉義市"
    },
    {
        "restid": "210",
        "name": "幸福綠光悠活餐飲",
        "address": "嘉義市光彩街644號",
        "phone": "05-2241833#",
        "mobile": "",
        "latitude": "23.47762",
        "longitude": "120.44305",
        "city": "嘉義市"
    },
    {
        "restid": "215",
        "name": "欣綠農園",
        "address": "花蓮縣光復鄉大全街55號",
        "phone": "03-8701861#",
        "mobile": "",
        "latitude": "23.655929",
        "longitude": "121.408985",
        "city": "花蓮縣"
    },
    {
        "restid": "220",
        "name": "華美社區剩食廚房",
        "address": "臺中市西區五權西六街84號",
        "phone": "04-23760034#",
        "mobile": "",
        "latitude": "24.137522",
        "longitude": "120.658717",
        "city": "臺中市"
    },
    {
        "restid": "165",
        "name": "佳珍海產餐廳有限公司",
        "address": "屏東縣東港鎮光復路二段47號",
        "phone": "08-8354898#",
        "mobile": "",
        "latitude": "22.467976",
        "longitude": "120.453863",
        "city": "屏東縣"
    },
    {
        "restid": "167",
        "name": "七里坡紅藜養生料理",
        "address": "臺東縣台東市中正路203號",
        "phone": "089-325777#",
        "mobile": "",
        "latitude": "22.754769",
        "longitude": "121.154469",
        "city": "臺東縣"
    },
    {
        "restid": "169",
        "name": "元泰大飯店企業有限公司",
        "address": "澎湖縣馬公市新店路477號",
        "phone": "06-9221122#",
        "mobile": "",
        "latitude": "23.5635",
        "longitude": "119.583545",
        "city": "澎湖縣"
    },
    {
        "restid": "174",
        "name": "哩賀涼麵",
        "address": "新北市永和區秀朗路一段169號",
        "phone": "-#",
        "mobile": "0985177944",
        "latitude": "24.984587",
        "longitude": "121.541535",
        "city": "新北市"
    },
    {
        "restid": "175",
        "name": "板橋凱撒大飯店(大廳酒吧)",
        "address": "新北市板橋區縣民大道二段8號",
        "phone": "02-89539777#",
        "mobile": "",
        "latitude": "25.011662",
        "longitude": "121.462638",
        "city": "新北市"
    },
    {
        "restid": "58",
        "name": "Plants",
        "address": "臺北市大安區復興南路1段253巷10號1樓",
        "phone": "02-27845677#",
        "mobile": "",
        "latitude": "25.03675",
        "longitude": "121.544189",
        "city": "臺北市"
    },
    {
        "restid": "62",
        "name": "陽明山春天書食創作料理士林店",
        "address": "臺北市士林區寈山路119-1號",
        "phone": "02-28620178#",
        "mobile": "",
        "latitude": "25.14448",
        "longitude": "121.56017",
        "city": "臺北市"
    },
    {
        "restid": "64",
        "name": "Mykonos私人島嶼",
        "address": "基隆市中山區湖海路一段37號",
        "phone": "02-24286978#",
        "mobile": "0920151354",
        "latitude": "25.163288",
        "longitude": "121.725725",
        "city": "基隆市"
    },
    {
        "restid": "67",
        "name": "谷巴休閒渡假村",
        "address": "苗栗縣造橋鄉造橋村過港坪11鄰8-6號",
        "phone": "-",
        "mobile": "",
        "latitude": "24.635912",
        "longitude": "120.875425",
        "city": "苗栗縣"
    },
    {
        "restid": "68",
        "name": "御廚川菜餐廳",
        "address": "苗栗縣苑裡鎮中山路322號",
        "phone": "-",
        "mobile": "",
        "latitude": "24.447862",
        "longitude": "120.655407",
        "city": "苗栗縣"
    },
    {
        "restid": "254",
        "name": "魯豫小喫",
        "address": "花蓮縣花蓮市民權路140號",
        "phone": "-",
        "mobile": "",
        "latitude": "23.994076",
        "longitude": "121.631356",
        "city": "花蓮縣"
    },
    {
        "restid": "255",
        "name": "石庭客家小館",
        "address": "花蓮縣花蓮市自由街140號",
        "phone": "03-8326116#",
        "mobile": "",
        "latitude": "23.97904",
        "longitude": "121.604125",
        "city": "花蓮縣"
    },
    {
        "restid": "256",
        "name": "太魯閣山月村",
        "address": "花蓮縣秀林鄉富世村231-1號",
        "phone": "03-8610111#",
        "mobile": "",
        "latitude": "24.170309",
        "longitude": "121.571524",
        "city": "花蓮縣"
    },
    {
        "restid": "261",
        "name": "臺中市華美社區剩食共享協進會",
        "address": "臺中市西區五權西六街84號",
        "phone": "04-23760034#",
        "mobile": "",
        "latitude": "24.137522",
        "longitude": "120.658717",
        "city": "臺中市"
    },
    {
        "restid": "263",
        "name": "福容大飯店花蓮",
        "address": "花蓮縣花蓮市民生路51號",
        "phone": "03-8239988#",
        "mobile": "",
        "latitude": "24.031528",
        "longitude": "121.603466",
        "city": "花蓮縣"
    },
    {
        "restid": "264",
        "name": "福容大飯店桃園-福粵樓",
        "address": "桃園市桃園區大興西路一段200號",
        "phone": "03-3265800#",
        "mobile": "",
        "latitude": "25.013866",
        "longitude": "121.303228",
        "city": "桃園市"
    },
    {
        "restid": "265",
        "name": "新港客廳",
        "address": "嘉義縣新港鄉新中路305號",
        "phone": "05-3748472#",
        "mobile": "",
        "latitude": "23.559867",
        "longitude": "120.343759",
        "city": "嘉義縣"
    },
    {
        "restid": "267",
        "name": "禾豐田食",
        "address": "臺中市西區模範街40巷12號",
        "phone": "-#",
        "mobile": "0936951685",
        "latitude": "24.149414",
        "longitude": "120.667713",
        "city": "臺中市"
    },
    {
        "restid": "269",
        "name": "新農豆食堂",
        "address": "嘉義縣新港鄉福德村登雲路111巷2號",
        "phone": "05-3743990#",
        "mobile": "",
        "latitude": "23.555709",
        "longitude": "120.344022",
        "city": "嘉義縣"
    },
    {
        "restid": "271",
        "name": "好初鍋物",
        "address": "新竹縣竹北市環北路一段232號",
        "phone": "03-5552878#",
        "mobile": "",
        "latitude": "24.83958",
        "longitude": "121.021251",
        "city": "新竹縣"
    },
    {
        "restid": "523",
        "name": "台南維悅酒店悅之鍋",
        "address": "臺南市安平區慶平路539號",
        "phone": "06-2989789#",
        "mobile": "",
        "latitude": "22.997178",
        "longitude": "120.171561",
        "city": "臺南市"
    },
    {
        "restid": "524",
        "name": "梅居休閒農場",
        "address": "臺北市士林區平菁街43巷99號",
        "phone": "-#",
        "mobile": "0963083276",
        "latitude": "25.14111",
        "longitude": "121.574811",
        "city": "臺北市"
    },
    {
        "restid": "525",
        "name": "莆田 (忠孝SOGO店)",
        "address": "臺北市大安區忠孝東路四段45號12F",
        "phone": "02-87710767#",
        "mobile": "",
        "latitude": "25.041902",
        "longitude": "121.544883",
        "city": "臺北市"
    },
    {
        "restid": "526",
        "name": "三合院 (忠孝SOGO店)",
        "address": "臺北市大安區忠孝東路四段45號11F",
        "phone": "02-27816667#",
        "mobile": "",
        "latitude": "25.041902",
        "longitude": "121.544883",
        "city": "臺北市"
    },
    {
        "restid": "527",
        "name": "吉 天婦羅 (忠孝SOGO店)",
        "address": "臺北市大安區忠孝東路四段45號11F",
        "phone": "02-27312518#",
        "mobile": "",
        "latitude": "25.041902",
        "longitude": "121.544883",
        "city": "臺北市"
    },
    {
        "restid": "529",
        "name": "金澤美味壽司 (忠孝SOGO店)",
        "address": "臺北市大安區忠孝東路四段45號11F",
        "phone": "02-87717770#",
        "mobile": "",
        "latitude": "25.041902",
        "longitude": "121.544883",
        "city": "臺北市"
    },
    {
        "restid": "532",
        "name": "聚 北海道鍋物 (忠孝SOGO店)",
        "address": "臺北市大安區忠孝東路四段45號11F",
        "phone": "02-27218787#",
        "mobile": "",
        "latitude": "25.041902",
        "longitude": "121.544883",
        "city": "臺北市"
    },
    {
        "restid": "533",
        "name": "漢來蔬食 (忠孝SOGO店)",
        "address": "臺北市大安區忠孝東路四段45號11F",
        "phone": "02-27311128#",
        "mobile": "",
        "latitude": "25.041902",
        "longitude": "121.544883",
        "city": "臺北市"
    },
    {
        "restid": "535",
        "name": "荷李活茶街 (忠孝SOGO店)",
        "address": "臺北市大安區忠孝東路四段45號2F",
        "phone": "02-27780369#",
        "mobile": "",
        "latitude": "25.042096",
        "longitude": "121.544634",
        "city": "臺北市"
    },
    {
        "restid": "536",
        "name": "詩特莉 Aunt Stella (忠孝SOGO店)",
        "address": "臺北市大安區忠孝東路四段45號B1",
        "phone": "02-27403072#",
        "mobile": "",
        "latitude": "25.041902",
        "longitude": "121.544883",
        "city": "臺北市"
    },
    {
        "restid": "451",
        "name": "八斗邀 Badauyao食材友善餐廳(預約制)",
        "address": "基隆市中正區八斗街35號",
        "phone": "02-24690800#",
        "mobile": "0928066052",
        "latitude": "25.141376",
        "longitude": "121.796626",
        "city": "基隆市"
    },
    {
        "restid": "453",
        "name": "Wind像風一樣(預約制餐廳及植栽販售)",
        "address": "基隆市信義區月眉路240號",
        "phone": "-#",
        "mobile": "0908855619",
        "latitude": "25.125125",
        "longitude": "121.757491",
        "city": "基隆市"
    },
    {
        "restid": "456",
        "name": "秧悦美地度假酒店",
        "address": "花蓮縣吉安鄉干城村干城二街100號",
        "phone": "03-8129168#3711",
        "mobile": "",
        "latitude": "23.946494",
        "longitude": "121.544419",
        "city": "花蓮縣"
    },
    {
        "restid": "457",
        "name": "日日厚福商行(友膳廚房)",
        "address": "臺中市中區民權路78號",
        "phone": "-#",
        "mobile": "0958758532",
        "latitude": "24.137615",
        "longitude": "120.680521",
        "city": "臺中市"
    },
    {
        "restid": "458",
        "name": "兩腳詩集生活旅店",
        "address": "南投縣集集鎮八張里民權路326號",
        "phone": "049-2762198#",
        "mobile": "",
        "latitude": "23.827137",
        "longitude": "120.79092",
        "city": "南投縣"
    },
    {
        "restid": "459",
        "name": "默爾Pasta Pizza(北屯店)",
        "address": "臺中市北屯區安順四街2號",
        "phone": "04-22490411#",
        "mobile": "",
        "latitude": "24.173483",
        "longitude": "120.688111",
        "city": "臺中市"
    },
    {
        "restid": "471",
        "name": "小覓秘食麵所",
        "address": "臺南市南區西門路一段689巷17號",
        "phone": "06-2224970#",
        "mobile": "",
        "latitude": "22.986702",
        "longitude": "120.197001",
        "city": "臺南市"
    },
    {
        "restid": "475",
        "name": "朝席盧食堂",
        "address": "澎湖縣馬公市安宅里200號",
        "phone": "06-9221367#",
        "mobile": "",
        "latitude": "23.58143",
        "longitude": "119.605614",
        "city": "澎湖縣"
    },
    {
        "restid": "476",
        "name": "尋鹿咖啡",
        "address": "彰化縣彰化市永安街476號",
        "phone": "04-7360960#",
        "mobile": "0987770839",
        "latitude": "24.094154",
        "longitude": "120.541931",
        "city": "彰化縣"
    },
    {
        "restid": "477",
        "name": "台灣美光記憶體股份有限公司員工餐廳(慢慢來咖啡)",
        "address": "臺中市后里區三豐路4段369號",
        "phone": "04-25218000#1694",
        "mobile": "",
        "latitude": "24.318145",
        "longitude": "120.724172",
        "city": "臺中市"
    },
    {
        "restid": "478",
        "name": "Mr.大雞",
        "address": "澎湖縣馬公市中華路226號",
        "phone": "06-9271233#",
        "mobile": "",
        "latitude": "23.572219",
        "longitude": "119.576248",
        "city": "澎湖縣"
    },
    {
        "restid": "571",
        "name": "貝利廚房",
        "address": "基隆市中正區信三路19號",
        "phone": "02-24270686#",
        "mobile": "0909981992",
        "latitude": "25.132456",
        "longitude": "121.745605",
        "city": "基隆市"
    },
    {
        "restid": "572",
        "name": "群創光電FAB6廠",
        "address": "臺南市新市區紫楝路21號",
        "phone": "06-5889998#61009",
        "mobile": "",
        "latitude": "23.099609",
        "longitude": "120.261342",
        "city": "臺南市"
    },
    {
        "restid": "573",
        "name": "水蓮花餐廳",
        "address": "新竹縣新豐鄉康和路199號",
        "phone": "03-5592132#2506",
        "mobile": "",
        "latitude": "24.869872",
        "longitude": "120.979052",
        "city": "新竹縣"
    },
    {
        "restid": "589",
        "name": "關山鎮農會米國學校田媽媽餐廳",
        "address": "臺東縣關山鎮昌林路24-1號",
        "phone": "089-814903#",
        "mobile": "",
        "latitude": "23.061064",
        "longitude": "121.168588",
        "city": "臺東縣"
    },
    {
        "restid": "590",
        "name": "泰迪農園咖哩",
        "address": "臺北市大安區忠孝東路三段300號7樓",
        "phone": "02-87726099#",
        "mobile": "",
        "latitude": "25.041212",
        "longitude": "121.543057",
        "city": "臺北市"
    },
    {
        "restid": "591",
        "name": "雅芳小吃店",
        "address": "嘉義縣番路鄉公田村龍頭19-5號",
        "phone": "05-2586198#",
        "mobile": "",
        "latitude": "23.441462",
        "longitude": "120.670919",
        "city": "嘉義縣"
    },
    {
        "restid": "592",
        "name": "龍雲山莊",
        "address": "嘉義縣竹崎鄉中和村石棹1號",
        "phone": "05-2562216#",
        "mobile": "",
        "latitude": "23.488005",
        "longitude": "120.703284",
        "city": "嘉義縣"
    },
    {
        "restid": "593",
        "name": "第一銀行總行大樓員工餐廳",
        "address": "臺北市中正區重慶南路一段30號21樓",
        "phone": "02-23481520#",
        "mobile": "",
        "latitude": "25.045572",
        "longitude": "121.513108",
        "city": "臺北市"
    },
    {
        "restid": "595",
        "name": "十八廚",
        "address": "臺北市松山區興安街212號1樓",
        "phone": "02-27547890#",
        "mobile": "",
        "latitude": "25.055993",
        "longitude": "121.545865",
        "city": "臺北市"
    },
    {
        "restid": "596",
        "name": "中油公司台南營業處員工餐廳",
        "address": "臺南市北區成功路16號",
        "phone": "06-2266101#1296",
        "mobile": "",
        "latitude": "22.998013",
        "longitude": "120.209382",
        "city": "臺南市"
    },
    {
        "restid": "597",
        "name": "魚雁商號碳烤吐司",
        "address": "嘉義市西區成功街20號",
        "phone": "-#",
        "mobile": "0966435353",
        "latitude": "23.476949",
        "longitude": "120.45271",
        "city": "嘉義市"
    },
    {
        "restid": "603",
        "name": "大地林檎-契作小農廚房",
        "address": "高雄市鳳山區北昌路40號",
        "phone": "07-7335550#",
        "mobile": "",
        "latitude": "22.645735",
        "longitude": "120.372646",
        "city": "高雄市"
    },
    {
        "restid": "605",
        "name": "新東陽員工環保餐廳",
        "address": "桃園市大園區大工路11號",
        "phone": "03-3866317#320",
        "mobile": "",
        "latitude": "25.065559",
        "longitude": "121.180316",
        "city": "桃園市"
    },
    {
        "restid": "609",
        "name": "富貴食堂",
        "address": "臺南市後壁區菁寮里7之2號",
        "phone": "06-6326899#",
        "mobile": "0952669199",
        "latitude": "23.379044",
        "longitude": "120.333153",
        "city": "臺南市"
    },
    {
        "restid": "610",
        "name": "多野樂旅館-異國蔬食餐廳",
        "address": "高雄市楠梓區興楠路385號",
        "phone": "07-3510222#",
        "mobile": "",
        "latitude": "22.728522",
        "longitude": "120.330977",
        "city": "高雄市"
    },
    {
        "restid": "612",
        "name": "礁溪老爺酒店",
        "address": "宜蘭縣礁溪鄉大忠村五峰路69號",
        "phone": "03-9886288#",
        "mobile": "",
        "latitude": "24.827907",
        "longitude": "121.755717",
        "city": "宜蘭縣"
    },
    {
        "restid": "613",
        "name": "池農田媽媽養生美食餐坊",
        "address": "臺東縣池上鄉新興村7鄰85-6號",
        "phone": "08-9865936#41",
        "mobile": "0928863343",
        "latitude": "23.116475",
        "longitude": "121.202443",
        "city": "臺東縣"
    },
    {
        "restid": "614",
        "name": "阮家茶坊天空餐廳",
        "address": "屏東縣枋寮鄉德興路31號",
        "phone": "08-8783831#",
        "mobile": "0963467050",
        "latitude": "22.36476",
        "longitude": "120.593478",
        "city": "屏東縣"
    },
    {
        "restid": "616",
        "name": "怡園渡假村",
        "address": "花蓮縣壽豐鄉豐坪村豐坪路三段6巷21號",
        "phone": "03-8655166#58881",
        "mobile": "",
        "latitude": "23.842269",
        "longitude": "121.523576",
        "city": "花蓮縣"
    },
    {
        "restid": "618",
        "name": "星晟棧渡假飯店",
        "address": "花蓮縣新城鄉新城村新興七街16號",
        "phone": "03-8610899#",
        "mobile": "",
        "latitude": "24.125907",
        "longitude": "121.641369",
        "city": "花蓮縣"
    },
    {
        "restid": "621",
        "name": "蘭欣辣汗美食景觀餐廳",
        "address": "屏東縣枋寮鄉中正大路666-8號",
        "phone": "08-8717370#",
        "mobile": "",
        "latitude": "22.37543",
        "longitude": "120.602394",
        "city": "屏東縣"
    },
    {
        "restid": "622",
        "name": "瑪邵家餐坊",
        "address": "屏東縣牡丹鄉旭海村62-2號",
        "phone": "08-8830369#",
        "mobile": "0925558159",
        "latitude": "22.192737",
        "longitude": "120.881279",
        "city": "屏東縣"
    },
    {
        "restid": "623",
        "name": "凱林鐵板燒",
        "address": "臺北市大安區忠孝東路三段300號B2",
        "phone": "02-87728551#",
        "mobile": "",
        "latitude": "25.041212",
        "longitude": "121.543057",
        "city": "臺北市"
    },
    {
        "restid": "656",
        "name": "竹林樓",
        "address": "嘉義縣中埔鄉和美村司公廍73之6號",
        "phone": "05-2301001#",
        "mobile": "",
        "latitude": "23.454049",
        "longitude": "120.461468",
        "city": "嘉義縣"
    },
    {
        "restid": "657",
        "name": "書屋花甲(台大店)",
        "address": "臺北市大安區羅斯福路三段283巷20號1樓",
        "phone": "02-23680824#",
        "mobile": "",
        "latitude": "25.018637",
        "longitude": "121.5317",
        "city": "臺北市"
    },
    {
        "restid": "658",
        "name": "ALife好.生活整合國際旅宿",
        "address": "臺南市鹽水區朝琴路127-2號",
        "phone": "09-33352757#",
        "mobile": "0933352757",
        "latitude": "23.322244",
        "longitude": "120.270483",
        "city": "臺南市"
    },
    {
        "restid": "660",
        "name": "成真咖啡台北sogo復興店",
        "address": "臺北市大安區忠孝東路三段300號9樓",
        "phone": "02-87723722#",
        "mobile": "0988327993",
        "latitude": "25.041212",
        "longitude": "121.543057",
        "city": "臺北市"
    },
    {
        "restid": "662",
        "name": "ucc café mercado",
        "address": "高雄市前鎮區三多三路217號2F",
        "phone": "07-3359902#",
        "mobile": "",
        "latitude": "22.614117",
        "longitude": "120.305916",
        "city": "高雄市"
    },
    {
        "restid": "664",
        "name": "Aunt Stella 詩特莉",
        "address": "臺北市大安區忠孝東路三段300號B3",
        "phone": "02-87721638#",
        "mobile": "",
        "latitude": "25.041212",
        "longitude": "121.543057",
        "city": "臺北市"
    },
    {
        "restid": "665",
        "name": "紅花鐵板燒(復興SOGO店)",
        "address": "臺北市大安區忠孝東路三段300號10樓",
        "phone": "02-27316555#",
        "mobile": "",
        "latitude": "25.119181",
        "longitude": "121.519166",
        "city": "臺北市"
    },
    {
        "restid": "679",
        "name": "旅鹿義法餐廳",
        "address": "屏東縣潮州鎮信義路78-1號",
        "phone": "08-7896642#",
        "mobile": "0930625903",
        "latitude": "21.997752",
        "longitude": "120.705406",
        "city": "屏東縣"
    },
    {
        "restid": "680",
        "name": "大心新泰式麵食（天母SOGO店）",
        "address": "臺北市士林區中山北路六段77號8樓",
        "phone": "02-28325366#",
        "mobile": "",
        "latitude": "25.105007",
        "longitude": "121.524278",
        "city": "臺北市"
    },
    {
        "restid": "681",
        "name": "神樂家（忠孝SOGO店）",
        "address": "臺北市大安區忠孝東路四段45號11樓",
        "phone": "02-89785666#",
        "mobile": "",
        "latitude": "25.041902",
        "longitude": "121.544883",
        "city": "臺北市"
    },
    {
        "restid": "686",
        "name": "榮記客家湯圓",
        "address": "新竹市武昌街64號",
        "phone": "03-5238238#",
        "mobile": "",
        "latitude": "24.802168",
        "longitude": "120.967866",
        "city": "新竹市"
    },
    {
        "restid": "699",
        "name": "虹橋港式飲茶",
        "address": "臺南市善化區成功路252號",
        "phone": "06-5838383#6630",
        "mobile": "",
        "latitude": "23.130182",
        "longitude": "120.30874",
        "city": "臺南市"
    },
    {
        "restid": "701",
        "name": "卡多利泡沫茶坊",
        "address": "屏東縣林邊鄉中山路229號",
        "phone": "08-8756470#",
        "mobile": "",
        "latitude": "22.433748",
        "longitude": "120.515604",
        "city": "屏東縣"
    },
    {
        "restid": "702",
        "name": "Lady nara-新竹SOGO店",
        "address": "新竹市中央路239號2F",
        "phone": "03-5339589#",
        "mobile": "0900646533",
        "latitude": "24.809614",
        "longitude": "120.976204",
        "city": "新竹市"
    },
    {
        "restid": "703",
        "name": "NARA Thai Cuisine-新竹SOGO店",
        "address": "新竹市中央路239號3F",
        "phone": "03-5427677#",
        "mobile": "0934008568",
        "latitude": "24.809614",
        "longitude": "120.976204",
        "city": "新竹市"
    },
    {
        "restid": "704",
        "name": "東京純豆腐-新竹SOGO店",
        "address": "新竹市中央路239號B1",
        "phone": "03-5426088#",
        "mobile": "0968618801",
        "latitude": "24.809614",
        "longitude": "120.976204",
        "city": "新竹市"
    },
    {
        "restid": "705",
        "name": "COFFEELOVER'S PLANET-新竹SOGO店",
        "address": "新竹市中央路239號1F",
        "phone": "03-5311558#",
        "mobile": "0989921815",
        "latitude": "24.809614",
        "longitude": "120.976204",
        "city": "新竹市"
    },
    {
        "restid": "706",
        "name": "十二月-新竹SOGO店",
        "address": "新竹市中央路239號3F",
        "phone": "03-6200055#",
        "mobile": "0931132962",
        "latitude": "24.809614",
        "longitude": "120.976204",
        "city": "新竹市"
    },
    {
        "restid": "707",
        "name": "三合院-新竹SOGO店",
        "address": "新竹市中央路239號B1",
        "phone": "03-5285577#",
        "mobile": "0989921815",
        "latitude": "24.809614",
        "longitude": "120.976204",
        "city": "新竹市"
    },
    {
        "restid": "516",
        "name": "基督復臨安息日會醫療財團法人臺安醫院 嗎哪天然之味餐廳",
        "address": "臺北市松山區八德路二段424號B1",
        "phone": "02-27718151#3120",
        "mobile": "",
        "latitude": "25.048052",
        "longitude": "121.547276",
        "city": "臺北市"
    },
    {
        "restid": "517",
        "name": "千郁莊園景觀餐廳",
        "address": "桃園市蘆竹區八德二路288號",
        "phone": "03-3246688#",
        "mobile": "",
        "latitude": "25.069634",
        "longitude": "121.339224",
        "city": "桃園市"
    },
    {
        "restid": "518",
        "name": "SICO料理所",
        "address": "彰化縣彰化市永安街425號",
        "phone": "04-7365636#",
        "mobile": "",
        "latitude": "24.092907",
        "longitude": "120.542173",
        "city": "彰化縣"
    },
    {
        "restid": "519",
        "name": "菁芳園",
        "address": "彰化縣田尾鄉打廉村張厝巷73號",
        "phone": "04-8243535#",
        "mobile": "",
        "latitude": "23.906372",
        "longitude": "120.534429",
        "city": "彰化縣"
    },
    {
        "restid": "520",
        "name": "蚵畫人生",
        "address": "彰化縣芳苑鄉王功村漁港路840號",
        "phone": "04-8936657#",
        "mobile": "",
        "latitude": "23.968247",
        "longitude": "120.327708",
        "city": "彰化縣"
    },
    {
        "restid": "521",
        "name": "達基力部落屋",
        "address": "花蓮縣秀林鄉崇德村7鄰96號",
        "phone": "03-8621033#",
        "mobile": "",
        "latitude": "24.158256",
        "longitude": "121.649747",
        "city": "花蓮縣"
    },
    {
        "restid": "522",
        "name": "藍藍飲食店",
        "address": "花蓮縣秀林鄉富世村富士272號",
        "phone": "03-8611627#",
        "mobile": "",
        "latitude": "24.154069",
        "longitude": "121.62263",
        "city": "花蓮縣"
    },
    {
        "restid": "709",
        "name": "蜜絲葉有纖低卡食驗所",
        "address": "彰化縣彰化市彰化市中興路160-3號",
        "phone": "04-7229797#",
        "mobile": "",
        "latitude": "24.070163",
        "longitude": "120.544308",
        "city": "彰化縣"
    },
    {
        "restid": "712",
        "name": "妙善公主素食養心鍋",
        "address": "高雄市前金區自強三路234號",
        "phone": "07-2419481#",
        "mobile": "0985123177",
        "latitude": "22.619893",
        "longitude": "120.296068",
        "city": "高雄市"
    },
    {
        "restid": "713",
        "name": "素沛蔬食",
        "address": "高雄市苓雅區林森二路132之1號",
        "phone": "07-3301762#",
        "mobile": "",
        "latitude": "22.620355",
        "longitude": "120.306696",
        "city": "高雄市"
    },
    {
        "restid": "714",
        "name": "菜根香人文素食餐廳",
        "address": "高雄市新興區民生一路23、25號",
        "phone": "07-2273333#",
        "mobile": "",
        "latitude": "22.627662",
        "longitude": "120.302687",
        "city": "高雄市"
    },
    {
        "restid": "715",
        "name": "魔樹屋",
        "address": "嘉義市東區大雅路二段558號",
        "phone": "05-2750908#",
        "mobile": "",
        "latitude": "23.47777",
        "longitude": "120.46895",
        "city": "嘉義市"
    },
    {
        "restid": "716",
        "name": "木吉良食鍋物",
        "address": "嘉義市文化路169號1樓",
        "phone": "05-2287887#",
        "mobile": "",
        "latitude": "23.48112",
        "longitude": "120.44922",
        "city": "嘉義市"
    },
    {
        "restid": "717",
        "name": "以娜的店",
        "address": "新竹縣尖石鄉玉峰村1鄰宇老3-2號",
        "phone": "03-5847222#",
        "mobile": "0928804557",
        "latitude": "24.667831",
        "longitude": "121.282511",
        "city": "新竹縣"
    },
    {
        "restid": "718",
        "name": "群創光電LCM廠",
        "address": "臺南市善化區南部科學工業園區台南園區南科八路12號",
        "phone": "06-5051880#67212",
        "mobile": "",
        "latitude": "23.115542",
        "longitude": "120.276276",
        "city": "臺南市"
    },
    {
        "restid": "719",
        "name": "幸福素食館",
        "address": "高雄市左營區店仔頂路110號1樓",
        "phone": "07-5827455#",
        "mobile": "",
        "latitude": "22.684964",
        "longitude": "120.290557",
        "city": "高雄市"
    },
    {
        "restid": "756",
        "name": "合歡茶宴風味餐廳",
        "address": "新北市坪林區水聳淒坑28號",
        "phone": "02-26656424#",
        "mobile": "",
        "latitude": "24.934",
        "longitude": "121.711537",
        "city": "新北市"
    },
    {
        "restid": "760",
        "name": "73階蔬食咖啡",
        "address": "高雄市鼓山區蓮海路70號中山大學學生活動中心3樓",
        "phone": "07-5252566#",
        "mobile": "",
        "latitude": "22.62646",
        "longitude": "120.265991",
        "city": "高雄市"
    },
    {
        "restid": "761",
        "name": "南島會館",
        "address": "南投縣南投市菓稟路105號",
        "phone": "049-2236676#",
        "mobile": "0920909808",
        "latitude": "23.907112",
        "longitude": "120.693562",
        "city": "南投縣"
    },
    {
        "restid": "764",
        "name": "親古韓味蔬食",
        "address": "高雄市新興區文橫二路127巷48號1樓",
        "phone": "07-2612403#",
        "mobile": "",
        "latitude": "22.621621",
        "longitude": "120.302794",
        "city": "高雄市"
    },
    {
        "restid": "765",
        "name": "總理大餐廳",
        "address": "臺南市北區西門路四段258號",
        "phone": "06-2512712#",
        "mobile": "0912767477",
        "latitude": "23.011769",
        "longitude": "120.209018",
        "city": "臺南市"
    },
    {
        "restid": "770",
        "name": "大象牛排館",
        "address": "南投縣南投市菓稟路105號",
        "phone": "049-2220650#",
        "mobile": "0910381012",
        "latitude": "23.907112",
        "longitude": "120.693562",
        "city": "南投縣"
    },
    {
        "restid": "771",
        "name": "老干媽素食專家",
        "address": "高雄市楠梓區樂群路178號",
        "phone": "07-3641818#",
        "mobile": "",
        "latitude": "22.718795",
        "longitude": "120.297166",
        "city": "高雄市"
    },
    {
        "restid": "772",
        "name": "阿飛早午餐",
        "address": "臺中市東區大智路17巷8號",
        "phone": "04-22230420#",
        "mobile": "",
        "latitude": "24.135978",
        "longitude": "120.688648",
        "city": "臺中市"
    },
    {
        "restid": "786",
        "name": "Q Burger新莊自立店",
        "address": "新北市新莊區自立街190號",
        "phone": "02-29927886",
        "mobile": "",
        "latitude": "25.04537",
        "longitude": "121.456374",
        "city": "新北市"
    },
    {
        "restid": "787",
        "name": "Q Burger新莊建中店",
        "address": "新北市新莊區建中街86號",
        "phone": "02-29922626",
        "mobile": "",
        "latitude": "25.036814",
        "longitude": "121.447069",
        "city": "新北市"
    },
    {
        "restid": "788",
        "name": "Q Burger板橋英士店",
        "address": "新北市板橋區英士路70號",
        "phone": "02-22580533",
        "mobile": "",
        "latitude": "25.024557",
        "longitude": "121.460494",
        "city": "新北市"
    },
    {
        "restid": "789",
        "name": "Q Burger五股成泰店",
        "address": "新北市五股區成泰路一段47號",
        "phone": "02-29096663",
        "mobile": "",
        "latitude": "25.067298",
        "longitude": "121.434134",
        "city": "新北市"
    },
    {
        "restid": "790",
        "name": "Q Burger北投實踐店",
        "address": "臺北市北投區實踐街61號",
        "phone": "02-28250909",
        "mobile": "",
        "latitude": "25.115293",
        "longitude": "121.509812",
        "city": "臺北市"
    },
    {
        "restid": "791",
        "name": "Q Burger新莊昌明店",
        "address": "新北市新莊區昌明街28號",
        "phone": "02-89921802",
        "mobile": "",
        "latitude": "25.052391",
        "longitude": "121.456872",
        "city": "新北市"
    },
    {
        "restid": "792",
        "name": "Q Burger士林通河店",
        "address": "臺北市士林區通河街125號",
        "phone": "02-28853848",
        "mobile": "",
        "latitude": "25.080739",
        "longitude": "121.521261",
        "city": "臺北市"
    },
    {
        "restid": "793",
        "name": "Q Burger新莊中平店",
        "address": "新北市新莊區中平路82巷10號",
        "phone": "02-29979188",
        "mobile": "",
        "latitude": "25.044785",
        "longitude": "121.445344",
        "city": "新北市"
    },
    {
        "restid": "807",
        "name": "Q Burger泰山義學店",
        "address": "新北市泰山區明志路2段101號",
        "phone": "02-29002131",
        "mobile": "",
        "latitude": "25.051845",
        "longitude": "121.428359",
        "city": "新北市"
    },
    {
        "restid": "808",
        "name": "Q Burger中和南山店",
        "address": "新北市中和區南山路161號1樓",
        "phone": "02-22439007",
        "mobile": "",
        "latitude": "24.995435",
        "longitude": "121.502754",
        "city": "新北市"
    },
    {
        "restid": "809",
        "name": "Q Burger淡水學府店",
        "address": "新北市淡水區學府路85號",
        "phone": "02-86315056",
        "mobile": "",
        "latitude": "25.170221",
        "longitude": "121.448553",
        "city": "新北市"
    },
    {
        "restid": "812",
        "name": "Q Burger三重福德南店",
        "address": "新北市三重區福德南路40號",
        "phone": "02-29755550",
        "mobile": "",
        "latitude": "25.062595",
        "longitude": "121.502992",
        "city": "新北市"
    },
    {
        "restid": "813",
        "name": "Q Burger汐止福德店",
        "address": "新北市汐止區福德二路140號",
        "phone": "02-26957300",
        "mobile": "",
        "latitude": "25.065238",
        "longitude": "121.630733",
        "city": "新北市"
    },
    {
        "restid": "814",
        "name": "Q Burger永和永元店",
        "address": "新北市永和區永元路124號",
        "phone": "02-29265857",
        "mobile": "",
        "latitude": "25.002853",
        "longitude": "121.522893",
        "city": "新北市"
    },
    {
        "restid": "815",
        "name": "Q Burger新莊中港店",
        "address": "新北市新莊區中港路419號",
        "phone": "02-22791117",
        "mobile": "",
        "latitude": "25.04756",
        "longitude": "121.452215",
        "city": "新北市"
    },
    {
        "restid": "816",
        "name": "Q Burger新莊成德店",
        "address": "新北市新莊區成德街8號",
        "phone": "02-22080936",
        "mobile": "",
        "latitude": "25.019451",
        "longitude": "121.422681",
        "city": "新北市"
    },
    {
        "restid": "829",
        "name": "Q Burger三重中正店",
        "address": "新北市三重區中正北路180號",
        "phone": "02-29856668",
        "mobile": "",
        "latitude": "25.066839",
        "longitude": "121.483204",
        "city": "新北市"
    },
    {
        "restid": "830",
        "name": "Q Burger板橋重慶店",
        "address": "新北市板橋區重慶路108號",
        "phone": "02-89523866",
        "mobile": "",
        "latitude": "25.005483",
        "longitude": "121.462013",
        "city": "新北市"
    },
    {
        "restid": "832",
        "name": "Q Burger板橋吳鳳店",
        "address": "新北市板橋區吳鳳路68號",
        "phone": "02-22572358",
        "mobile": "",
        "latitude": "25.030823",
        "longitude": "121.467433",
        "city": "新北市"
    },
    {
        "restid": "833",
        "name": "Q Burger中和廣福店",
        "address": "新北市中和區廣福路82號",
        "phone": "02-82458286",
        "mobile": "",
        "latitude": "25.001566",
        "longitude": "121.502847",
        "city": "新北市"
    },
    {
        "restid": "834",
        "name": "Q Burger中和景新店",
        "address": "新北市中和區景平路111巷61弄21號",
        "phone": "02-86689008",
        "mobile": "",
        "latitude": "24.989908",
        "longitude": "121.514947",
        "city": "新北市"
    },
    {
        "restid": "835",
        "name": "Q Burger淡水新民店",
        "address": "新北市淡水區新民街65號",
        "phone": "02-26262060",
        "mobile": "",
        "latitude": "25.176348",
        "longitude": "121.438419",
        "city": "新北市"
    },
    {
        "restid": "836",
        "name": "Q Burger蘆洲中原店",
        "address": "新北市蘆洲區中原路24號",
        "phone": "02-22831717",
        "mobile": "",
        "latitude": "25.082886",
        "longitude": "121.460201",
        "city": "新北市"
    },
    {
        "restid": "837",
        "name": "Q Burger中和中山店",
        "address": "新北市中和區員山路454號",
        "phone": "02-82211126",
        "mobile": "",
        "latitude": "25.006186",
        "longitude": "121.480071",
        "city": "新北市"
    },
    {
        "restid": "838",
        "name": "Q Burger蘆洲長興店",
        "address": "新北市蘆洲區長興路265號",
        "phone": "02-22882835",
        "mobile": "",
        "latitude": "25.088034",
        "longitude": "121.460258",
        "city": "新北市"
    },
    {
        "restid": "851",
        "name": "Q Burger泰山全興店",
        "address": "新北市泰山區全興路105號",
        "phone": "02-22970930",
        "mobile": "",
        "latitude": "25.056958",
        "longitude": "121.433775",
        "city": "新北市"
    },
    {
        "restid": "852",
        "name": "Q Burger板橋華興店",
        "address": "新北市板橋區華興街40號",
        "phone": "02-29522710",
        "mobile": "",
        "latitude": "25.004763",
        "longitude": "121.458476",
        "city": "新北市"
    },
    {
        "restid": "853",
        "name": "Q Burger大橋頭店",
        "address": "臺北市信義區民權西路226號",
        "phone": "02-25500147",
        "mobile": "",
        "latitude": "25.062866",
        "longitude": "121.513987",
        "city": "臺北市"
    },
    {
        "restid": "856",
        "name": "Q Burger樹林日新店",
        "address": "新北市樹林區日新街67號",
        "phone": "02-26852697",
        "mobile": "",
        "latitude": "24.991036",
        "longitude": "121.422163",
        "city": "新北市"
    },
    {
        "restid": "858",
        "name": "Q Burger新莊立信店",
        "address": "新北市新莊區立信三街12巷12號 1樓",
        "phone": "02-22777909",
        "mobile": "",
        "latitude": "25.050886",
        "longitude": "121.444413",
        "city": "新北市"
    },
    {
        "restid": "860",
        "name": "Q Burger大同大龍店",
        "address": "臺北市信義區大龍街150號",
        "phone": "02-25996128",
        "mobile": "",
        "latitude": "25.067933",
        "longitude": "121.516423",
        "city": "臺北市"
    },
    {
        "restid": "895",
        "name": "Q Burger竹北台元店",
        "address": "新竹縣竹北市博愛街611號",
        "phone": "03-5555605",
        "mobile": "",
        "latitude": "24.841636",
        "longitude": "121.01225532",
        "city": "新竹縣"
    },
    {
        "restid": "896",
        "name": "Q Burger新店安康店",
        "address": "新北市新店區安康路二段107巷1號",
        "phone": "02-86663040",
        "mobile": "",
        "latitude": "24.962167",
        "longitude": "121.51275",
        "city": "新北市"
    },
    {
        "restid": "898",
        "name": "Q Burger泰山泰林店",
        "address": "新北市泰山區泰林路二段475號1樓",
        "phone": "02-29090097",
        "mobile": "",
        "latitude": "25.063874",
        "longitude": "121.42516",
        "city": "新北市"
    },
    {
        "restid": "899",
        "name": "Q Burger新莊國小店",
        "address": "新北市新莊區中港路50號",
        "phone": "02-22771516",
        "mobile": "",
        "latitude": "25.03843",
        "longitude": "121.455434",
        "city": "新北市"
    },
    {
        "restid": "900",
        "name": "Q Burger三峽中華店",
        "address": "新北市三峽區安溪里中華路46-2號",
        "phone": "02-86719007",
        "mobile": "",
        "latitude": "24.93046",
        "longitude": "121.371979",
        "city": "新北市"
    },
    {
        "restid": "901",
        "name": "Q Burger蘆洲成功店",
        "address": "新北市蘆洲區長安街268號",
        "phone": "02-22880695",
        "mobile": "",
        "latitude": "25.086818",
        "longitude": "121.45743",
        "city": "新北市"
    },
    {
        "restid": "904",
        "name": "Q Burger松山撫遠店",
        "address": "臺北市松山區撫遠街352號",
        "phone": "02-27533262",
        "mobile": "",
        "latitude": "25.062742",
        "longitude": "121.565931",
        "city": "臺北市"
    },
    {
        "restid": "917",
        "name": "Q Burger中山中原店",
        "address": "臺北市中山區中原街41號1樓",
        "phone": "02-25232521",
        "mobile": "",
        "latitude": "25.056967",
        "longitude": "121.52894",
        "city": "臺北市"
    },
    {
        "restid": "918",
        "name": "Q Burger汐止綠多店",
        "address": "新北市汐止區仁愛路162號1樓",
        "phone": "02-26430058",
        "mobile": "",
        "latitude": "25.064955",
        "longitude": "121.664168",
        "city": "新北市"
    },
    {
        "restid": "921",
        "name": "Q Burger中和宜安店",
        "address": "新北市中和區宜安路25號",
        "phone": "02-29470125",
        "mobile": "",
        "latitude": "24.995901",
        "longitude": "121.512828",
        "city": "新北市"
    },
    {
        "restid": "922",
        "name": "Q Burger信義虎林店",
        "address": "臺北市信義區信義路六段106號1樓",
        "phone": "02-27279868",
        "mobile": "",
        "latitude": "25.035875",
        "longitude": "121.577796",
        "city": "臺北市"
    },
    {
        "restid": "923",
        "name": "Q Burger蘆洲中山店",
        "address": "新北市蘆洲區中山二路179號1樓",
        "phone": "02-22885811",
        "mobile": "",
        "latitude": "25.080931",
        "longitude": "121.471045",
        "city": "新北市"
    },
    {
        "restid": "925",
        "name": "Q Burger中山吉林店",
        "address": "臺北市中山區吉林路397號",
        "phone": "02-25910182",
        "mobile": "",
        "latitude": "25.065967",
        "longitude": "121.53152",
        "city": "臺北市"
    },
    {
        "restid": "926",
        "name": "Q Burger士林忠義店",
        "address": "臺北市士林區忠義街113-1號一樓",
        "phone": "02-28343148",
        "mobile": "",
        "latitude": "25.107074",
        "longitude": "121.532664",
        "city": "臺北市"
    },
    {
        "restid": "938",
        "name": "Q Burger新店玫瑰店",
        "address": "新北市新店區安康路三段30號一樓",
        "phone": "02-22126673",
        "mobile": "",
        "latitude": "24.953208",
        "longitude": "121.493039",
        "city": "新北市"
    },
    {
        "restid": "939",
        "name": "Q Burger中和員山店",
        "address": "新北市中和區員山路395號",
        "phone": "02-82286062",
        "mobile": "",
        "latitude": "25.002981",
        "longitude": "121.481103",
        "city": "新北市"
    },
    {
        "restid": "940",
        "name": "Q Burger板橋永豐店",
        "address": "新北市板橋區永豐街115號",
        "phone": "02-29580337",
        "mobile": "",
        "latitude": "25.019642",
        "longitude": "121.474303",
        "city": "新北市"
    },
    {
        "restid": "942",
        "name": "Q Burger內湖星雲店",
        "address": "臺北市內湖區星雲街14號",
        "phone": "02-27922009",
        "mobile": "",
        "latitude": "25.077784",
        "longitude": "121.590517",
        "city": "臺北市"
    },
    {
        "restid": "944",
        "name": "Q Burger中和建一店",
        "address": "新北市中和區建一路157號1樓",
        "phone": "02-82282132",
        "mobile": "",
        "latitude": "24.999276",
        "longitude": "121.488259",
        "city": "新北市"
    },
    {
        "restid": "945",
        "name": "Q Burger中山錦州店",
        "address": "臺北市中山區吉林路205號",
        "phone": "02-25222997",
        "mobile": "",
        "latitude": "25.060113",
        "longitude": "121.530364",
        "city": "臺北市"
    },
    {
        "restid": "946",
        "name": "Q Burger中和保健店",
        "address": "新北市中和區景安路22號1樓",
        "phone": "02-22460690",
        "mobile": "",
        "latitude": "24.998704",
        "longitude": "121.507414",
        "city": "新北市"
    },
    {
        "restid": "961",
        "name": "Q Burger中山榮星店",
        "address": "臺北市中山區行仁里五常街63號",
        "phone": "02-25016190",
        "mobile": "",
        "latitude": "25.064385",
        "longitude": "121.539991",
        "city": "臺北市"
    },
    {
        "restid": "963",
        "name": "Q Burger汐止明峰店",
        "address": "新北市汐止區明峰街125-3號1樓",
        "phone": "02-26932023",
        "mobile": "",
        "latitude": "25.070912",
        "longitude": "121.63056",
        "city": "新北市"
    },
    {
        "restid": "964",
        "name": "Q Burger板橋長安店",
        "address": "新北市板橋區長安街210之1號",
        "phone": "02-29590700",
        "mobile": "",
        "latitude": "25.011994",
        "longitude": "121.474633",
        "city": "新北市"
    },
    {
        "restid": "965",
        "name": "Q Burger信義永吉店",
        "address": "臺北市信義區永吉路120巷1號1樓",
        "phone": "02-27653337",
        "mobile": "",
        "latitude": "25.045445",
        "longitude": "121.570415",
        "city": "臺北市"
    },
    {
        "restid": "966",
        "name": "Q Burger信義松山店",
        "address": "臺北市信義區松山路465巷2號",
        "phone": "02-27279620",
        "mobile": "",
        "latitude": "25.039515",
        "longitude": "121.578491",
        "city": "臺北市"
    },
    {
        "restid": "967",
        "name": "Q Burger萬華雙園店",
        "address": "臺北市萬華區雙園街15號",
        "phone": "02-23087655",
        "mobile": "",
        "latitude": "25.029171",
        "longitude": "121.495014",
        "city": "臺北市"
    },
    {
        "restid": "980",
        "name": "Q Burger新店安民店",
        "address": "新北市新店區安民街300號一樓",
        "phone": "02-22120652",
        "mobile": "",
        "latitude": "24.973704",
        "longitude": "121.517709",
        "city": "新北市"
    },
    {
        "restid": "981",
        "name": "Q Burger信義吳興店",
        "address": "臺北市信義區吳興街281巷59號",
        "phone": "02-27200965",
        "mobile": "",
        "latitude": "25.026564",
        "longitude": "121.565777",
        "city": "臺北市"
    },
    {
        "restid": "982",
        "name": "Q Burger中正寧波店",
        "address": "臺北市中正區寧波西街100號1樓",
        "phone": "02-23325085",
        "mobile": "",
        "latitude": "25.029555",
        "longitude": "121.514514",
        "city": "臺北市"
    },
    {
        "restid": "984",
        "name": "Q Burger北投懷德店",
        "address": "臺北市北投區建民路161-5號1樓",
        "phone": "02-28202320",
        "mobile": "",
        "latitude": "25.111066",
        "longitude": "121.519605",
        "city": "臺北市"
    },
    {
        "restid": "985",
        "name": "Q Burger三重菜寮店",
        "address": "新北市三重區重新路三段93號1樓",
        "phone": "02-29880901",
        "mobile": "",
        "latitude": "25.060117",
        "longitude": "121.491574",
        "city": "新北市"
    },
    {
        "restid": "986",
        "name": "Q Burger大安樂業店",
        "address": "臺北市大安區樂業街153號",
        "phone": "02-27360209",
        "mobile": "",
        "latitude": "25.019635",
        "longitude": "121.55367",
        "city": "臺北市"
    },
    {
        "restid": "1002",
        "name": "Q Burger新莊光明店",
        "address": "新北市新莊區民安西路256號1樓",
        "phone": "02-22035686",
        "mobile": "",
        "latitude": "25.013456",
        "longitude": "121.425952",
        "city": "新北市"
    },
    {
        "restid": "1004",
        "name": "Q Burger新店三民店",
        "address": "新北市新店區三民路121號1樓",
        "phone": "02-89110352",
        "mobile": "",
        "latitude": "24.972241",
        "longitude": "121.534754",
        "city": "新北市"
    },
    {
        "restid": "1005",
        "name": "Q Burger三重光興店",
        "address": "新北市三重區正義南路103號",
        "phone": "02-29740006",
        "mobile": "",
        "latitude": "25.059256",
        "longitude": "121.498454",
        "city": "新北市"
    },
    {
        "restid": "1008",
        "name": "Q Burger三重田安店",
        "address": "新北市三重區三民街71號1樓",
        "phone": "02-29840181",
        "mobile": "",
        "latitude": "25.062768",
        "longitude": "121.48595",
        "city": "新北市"
    },
    {
        "restid": "1023",
        "name": "Q Burger文山木新店",
        "address": "臺北市文山區木新路二段229號",
        "phone": "02-29396817",
        "mobile": "",
        "latitude": "24.983356",
        "longitude": "121.567274",
        "city": "臺北市"
    },
    {
        "restid": "1025",
        "name": "Q Burger蘆洲永平店",
        "address": "新北市蘆洲區永平街32巷15號一樓",
        "phone": "02-82828616",
        "mobile": "",
        "latitude": "25.091411",
        "longitude": "121.458966",
        "city": "新北市"
    },
    {
        "restid": "1026",
        "name": "Q Burger中和自立店",
        "address": "新北市中和區自立路76號一樓",
        "phone": "02-29488588",
        "mobile": "",
        "latitude": "24.99125",
        "longitude": "121.524045",
        "city": "新北市"
    },
    {
        "restid": "1027",
        "name": "Q Burger永和信義店",
        "address": "新北市永和區信義路93號1樓",
        "phone": "02-29214352",
        "mobile": "",
        "latitude": "25.013874",
        "longitude": "121.512274",
        "city": "新北市"
    },
    {
        "restid": "1028",
        "name": "Q Burger北投中和店",
        "address": "臺北市北投區中和街402號",
        "phone": "02-28915262",
        "mobile": "",
        "latitude": "25.143566",
        "longitude": "121.498161",
        "city": "臺北市"
    },
    {
        "restid": "1029",
        "name": "Q Burger汐止樟樹店",
        "address": "新北市汐止區樟樹一路130號",
        "phone": "02-86916631",
        "mobile": "",
        "latitude": "25.064547",
        "longitude": "121.642194",
        "city": "新北市"
    },
    {
        "restid": "1030",
        "name": "Q Burger土城延和店",
        "address": "新北市土城區延和路115號1樓",
        "phone": "02-22631515",
        "mobile": "",
        "latitude": "24.990404",
        "longitude": "121.467982",
        "city": "新北市"
    },
    {
        "restid": "1031",
        "name": "Q Burger汐止連興店",
        "address": "新北市汐止區連興街73號1樓",
        "phone": "02-26919516",
        "mobile": "",
        "latitude": "25.062799",
        "longitude": "121.654075",
        "city": "新北市"
    },
    {
        "restid": "774",
        "name": "綠饌食-鳳山店",
        "address": "高雄市鳳山區建國路三段435號",
        "phone": "07-7774528#",
        "mobile": "",
        "latitude": "22.637515",
        "longitude": "120.347404",
        "city": "高雄市"
    },
    {
        "restid": "775",
        "name": "Q Burger（總店）",
        "address": "新北市新莊區頭前路24號",
        "phone": "02-89913667",
        "mobile": "",
        "latitude": "25.051435",
        "longitude": "121.467613",
        "city": "新北市"
    },
    {
        "restid": "776",
        "name": "Q Burger國隆總店店",
        "address": "新北市三重區國隆路26號",
        "phone": "02-89837007",
        "mobile": "",
        "latitude": "25.064229",
        "longitude": "121.49248",
        "city": "新北市"
    },
    {
        "restid": "777",
        "name": "Q Burger三重永福店",
        "address": "新北市三重區永福街172號",
        "phone": "02-82878666",
        "mobile": "",
        "latitude": "25.074468",
        "longitude": "121.480903",
        "city": "新北市"
    },
    {
        "restid": "778",
        "name": "Q Burger三重仁愛店",
        "address": "新北市三重區溪尾街269號",
        "phone": "02-29860322",
        "mobile": "",
        "latitude": "25.082346",
        "longitude": "121.487657",
        "city": "新北市"
    },
    {
        "restid": "779",
        "name": "Q Burger三重慈愛店",
        "address": "新北市三重區慈愛街46號",
        "phone": "02-22808853",
        "mobile": "",
        "latitude": "25.079187",
        "longitude": "121.485859",
        "city": "新北市"
    },
    {
        "restid": "780",
        "name": "Q Burger新莊民安店",
        "address": "新北市新莊區民安路35號",
        "phone": "02-22020252",
        "mobile": "",
        "latitude": "25.026793",
        "longitude": "121.423613",
        "city": "新北市"
    },
    {
        "restid": "781",
        "name": "Q Burger三重龍門店",
        "address": "新北市三重區龍門路40號",
        "phone": "02-29772611",
        "mobile": "",
        "latitude": "25.072444",
        "longitude": "121.495962",
        "city": "新北市"
    },
    {
        "restid": "782",
        "name": "Q Burger中和民生店",
        "address": "新北市中和區民生街85巷1弄2號",
        "phone": "02-29550810",
        "mobile": "",
        "latitude": "25.004567",
        "longitude": "121.469076",
        "city": "新北市"
    },
    {
        "restid": "783",
        "name": "Q Burger泰山明志店",
        "address": "新北市泰山區明志路2段353號",
        "phone": "02-29081667",
        "mobile": "",
        "latitude": "25.044391",
        "longitude": "121.425445",
        "city": "新北市"
    },
    {
        "restid": "784",
        "name": "Q Burger新莊化成店",
        "address": "新北市新莊區化成路31號",
        "phone": "02-29906004",
        "mobile": "",
        "latitude": "25.043993",
        "longitude": "121.465074",
        "city": "新北市"
    },
    {
        "restid": "817",
        "name": "Q Burger三重三民店",
        "address": "新北市三重區三民街298號",
        "phone": "02-29869285",
        "mobile": "",
        "latitude": "25.068933",
        "longitude": "121.477968",
        "city": "新北市"
    },
    {
        "restid": "818",
        "name": "Q Burger文山景福店",
        "address": "臺北市文山區景福街234號",
        "phone": "02-89351881",
        "mobile": "",
        "latitude": "24.993632",
        "longitude": "121.539379",
        "city": "臺北市"
    },
    {
        "restid": "820",
        "name": "Q Burger北投致遠店",
        "address": "臺北市北投區致遠一路一段95號",
        "phone": "02-28250606",
        "mobile": "",
        "latitude": "25.109373",
        "longitude": "121.515206",
        "city": "臺北市"
    },
    {
        "restid": "821",
        "name": "Q Burger板橋中山店",
        "address": "新北市板橋區東丘里中山路２段９０巷１２號",
        "phone": "02-29552958",
        "mobile": "",
        "latitude": "25.015885",
        "longitude": "121.475419",
        "city": "新北市"
    },
    {
        "restid": "824",
        "name": "Q Burger永和永亨店",
        "address": "新北市永和區永亨路107號",
        "phone": "02-29202227",
        "mobile": "",
        "latitude": "25.004807",
        "longitude": "121.5234",
        "city": "新北市"
    },
    {
        "restid": "825",
        "name": "Q Burger樹林育英店",
        "address": "新北市樹林區育英街146號",
        "phone": "02-26851719",
        "mobile": "",
        "latitude": "24.989501",
        "longitude": "121.41918",
        "city": "新北市"
    },
    {
        "restid": "826",
        "name": "Q Burger中和興南店",
        "address": "新北市中和區興南路二段69號",
        "phone": "02-86683877",
        "mobile": "",
        "latitude": "24.985071",
        "longitude": "121.506857",
        "city": "新北市"
    },
    {
        "restid": "828",
        "name": "Q Burger三重集成店",
        "address": "新北市三重區集成路42號",
        "phone": "02-29776785",
        "mobile": "",
        "latitude": "25.052773",
        "longitude": "121.488978",
        "city": "新北市"
    },
    {
        "restid": "839",
        "name": "Q Burger中和南勢角店",
        "address": "新北市中和區南山路174-2號",
        "phone": "02-29470520",
        "mobile": "",
        "latitude": "24.991284",
        "longitude": "121.504919",
        "city": "新北市"
    },
    {
        "restid": "841",
        "name": "Q Burger新店中正店",
        "address": "新北市新店區中正路546號1樓",
        "phone": "02-86673625",
        "mobile": "",
        "latitude": "24.9865",
        "longitude": "121.533676",
        "city": "新北市"
    },
    {
        "restid": "843",
        "name": "Q Burger中和民享店",
        "address": "新北市中和區民享街86巷3號1樓",
        "phone": "02-82282005",
        "mobile": "",
        "latitude": "25.000854",
        "longitude": "121.474348",
        "city": "新北市"
    },
    {
        "restid": "844",
        "name": "Q Burger新莊新豐店",
        "address": "新北市新莊區新豐街25號1樓",
        "phone": "02-22010220",
        "mobile": "",
        "latitude": "25.03417",
        "longitude": "121.448081",
        "city": "新北市"
    },
    {
        "restid": "845",
        "name": "Q Burger士林延平店",
        "address": "臺北市士林區延平北路五段179號",
        "phone": "02-28110658",
        "mobile": "",
        "latitude": "25.083092",
        "longitude": "121.51003",
        "city": "臺北市"
    },
    {
        "restid": "847",
        "name": "Q Burger蘆洲鷺江店",
        "address": "新北市蘆洲區鷺江街95號",
        "phone": "02-22880500",
        "mobile": "",
        "latitude": "25.083825",
        "longitude": "121.476828",
        "city": "新北市"
    },
    {
        "restid": "848",
        "name": "Q Burger板橋金園店",
        "address": "新北市板橋區金門街171號",
        "phone": "02-26818787",
        "mobile": "",
        "latitude": "24.990117",
        "longitude": "121.432574",
        "city": "新北市"
    },
    {
        "restid": "862",
        "name": "Q Burger土城永豐店",
        "address": "新北市土城區永豐路135巷10號1樓",
        "phone": "02-22707050",
        "mobile": "",
        "latitude": "24.983343",
        "longitude": "121.467247",
        "city": "新北市"
    },
    {
        "restid": "863",
        "name": "Q Burger新莊建安店",
        "address": "新北市新莊區建安街45號1樓",
        "phone": "02-22012300",
        "mobile": "",
        "latitude": "25.025538",
        "longitude": "121.428731",
        "city": "新北市"
    },
    {
        "restid": "864",
        "name": "Q Burger中和景安店",
        "address": "新北市中和區景新街175號1樓",
        "phone": "02-86682175",
        "mobile": "",
        "latitude": "24.99555",
        "longitude": "121.506791",
        "city": "新北市"
    },
    {
        "restid": "865",
        "name": "Q Burger五股西雲店",
        "address": "新北市五股區西雲路241號1樓",
        "phone": "02-22935777",
        "mobile": "",
        "latitude": "25.097723",
        "longitude": "121.449134",
        "city": "新北市"
    },
    {
        "restid": "866",
        "name": "Q Burger三峽大同店",
        "address": "新北市三峽區介壽里大同路1-4號1樓",
        "phone": "02-26740031",
        "mobile": "",
        "latitude": "24.929621",
        "longitude": "121.378178",
        "city": "新北市"
    },
    {
        "restid": "868",
        "name": "Q Burger中和福美店",
        "address": "新北市中和區福善里福美路313號",
        "phone": "02-22490131",
        "mobile": "",
        "latitude": "25.004674",
        "longitude": "121.49675",
        "city": "新北市"
    },
    {
        "restid": "869",
        "name": "Q Burger板橋文聖店",
        "address": "新北市板橋區文聖街142號",
        "phone": "02-22500123",
        "mobile": "",
        "latitude": "25.027913",
        "longitude": "121.478472",
        "city": "新北市"
    },
    {
        "restid": "870",
        "name": "Q Burger樹林三福店",
        "address": "新北市樹林區三福街144號",
        "phone": "02-26880015",
        "mobile": "",
        "latitude": "25.016078",
        "longitude": "121.405839",
        "city": "新北市"
    },
    {
        "restid": "871",
        "name": "Q Burger永和得和店",
        "address": "新北市永和區得和路172號1樓",
        "phone": "02-86681921",
        "mobile": "",
        "latitude": "24.999991",
        "longitude": "121.519721",
        "city": "新北市"
    },
    {
        "restid": "872",
        "name": "Q Burger土城廣興店",
        "address": "新北市土城區廣興街33號1樓",
        "phone": "02-89661116",
        "mobile": "",
        "latitude": "24.991516",
        "longitude": "121.455327",
        "city": "新北市"
    },
    {
        "restid": "883",
        "name": "Q Burger萬華國興店",
        "address": "臺北市萬華區國興路98號",
        "phone": "02-23056683",
        "mobile": "",
        "latitude": "25.02721",
        "longitude": "121.505611",
        "city": "臺北市"
    },
    {
        "restid": "884",
        "name": "Q Burger板橋海山店",
        "address": "新北市板橋區漢生東路193巷7號1樓",
        "phone": "02-29546666",
        "mobile": "",
        "latitude": "25.011917",
        "longitude": "121.470293",
        "city": "新北市"
    },
    {
        "restid": "886",
        "name": "Q Burger蘆洲信義店",
        "address": "新北市蘆洲區信義路245號",
        "phone": "02-28487578",
        "mobile": "",
        "latitude": "25.084298",
        "longitude": "121.479027",
        "city": "新北市"
    },
    {
        "restid": "888",
        "name": "Q Burger信義信安店",
        "address": "臺北市信義區信安街127號",
        "phone": "02-87321008",
        "mobile": "",
        "latitude": "25.024214",
        "longitude": "121.555938",
        "city": "臺北市"
    },
    {
        "restid": "890",
        "name": "Q Burger萬華青年店",
        "address": "臺北市萬華區青年路140號1樓",
        "phone": "02-23070701",
        "mobile": "",
        "latitude": "25.021825",
        "longitude": "121.502456",
        "city": "臺北市"
    },
    {
        "restid": "891",
        "name": "Q Burger文山萬隆店",
        "address": "臺北市文山區萬隆里景福街4號1樓",
        "phone": "02-29331380",
        "mobile": "",
        "latitude": "24.999628",
        "longitude": "121.539496",
        "city": "臺北市"
    },
    {
        "restid": "892",
        "name": "Q Burger三峽文化店",
        "address": "新北市三峽區文化路266之13號1樓",
        "phone": "02-26738182",
        "mobile": "",
        "latitude": "24.935783",
        "longitude": "121.366108",
        "city": "新北市"
    },
    {
        "restid": "893",
        "name": "Q Burger五股工商店",
        "address": "新北市五股區工商路193號1樓",
        "phone": "02-22941002",
        "mobile": "",
        "latitude": "25.087052",
        "longitude": "121.433637",
        "city": "新北市"
    },
    {
        "restid": "894",
        "name": "Q Burger新莊雙鳳店",
        "address": "新北市新莊區雙鳳路23號1樓",
        "phone": "02-29081680",
        "mobile": "",
        "latitude": "25.026983",
        "longitude": "121.416634",
        "city": "新北市"
    },
    {
        "restid": "907",
        "name": "Q Burger林口仁愛店",
        "address": "新北市林口區西林里仁愛路二段150號",
        "phone": "02-26016558",
        "mobile": "",
        "latitude": "25.074358",
        "longitude": "121.381934",
        "city": "新北市"
    },
    {
        "restid": "909",
        "name": "Q Burger板橋介壽店",
        "address": "新北市板橋區介壽街17號1樓",
        "phone": "02-22553597",
        "mobile": "",
        "latitude": "25.020258",
        "longitude": "121.467594",
        "city": "新北市"
    },
    {
        "restid": "911",
        "name": "Q Burger汐止秀峰店",
        "address": "新北市汐止區仁愛路26號1樓",
        "phone": "02-26430098",
        "mobile": "",
        "latitude": "25.062892",
        "longitude": "121.659974",
        "city": "新北市"
    },
    {
        "restid": "913",
        "name": "Q Burger五股成洲店",
        "address": "新北市五股區成泰路三段577巷43號1樓",
        "phone": "02-22918228",
        "mobile": "",
        "latitude": "25.103012",
        "longitude": "121.450931",
        "city": "新北市"
    },
    {
        "restid": "914",
        "name": "Q Burger中和中興店",
        "address": "新北市中和區中興街163號1樓+地下室",
        "phone": "02-22429011",
        "mobile": "",
        "latitude": "24.990794",
        "longitude": "121.500044",
        "city": "新北市"
    },
    {
        "restid": "915",
        "name": "Q Burger板橋大仁店",
        "address": "新北市板橋區大仁街26號1樓",
        "phone": "02-29666587",
        "mobile": "",
        "latitude": "25.016953",
        "longitude": "121.45553",
        "city": "新北市"
    },
    {
        "restid": "916",
        "name": "Q Burger土城延吉店",
        "address": "新北市土城區延吉街312號",
        "phone": "02-82610582",
        "mobile": "",
        "latitude": "24.984055",
        "longitude": "121.463911",
        "city": "新北市"
    },
    {
        "restid": "927",
        "name": "Q Burger信義松仁店",
        "address": "臺北市信義區松仁路227號1樓",
        "phone": "02-27208119",
        "mobile": "",
        "latitude": "25.026309",
        "longitude": "121.568693",
        "city": "臺北市"
    },
    {
        "restid": "928",
        "name": "Q Burger新店大豐店",
        "address": "新北市新店區大豐路16巷2號",
        "phone": "02-89146488",
        "mobile": "",
        "latitude": "24.980433",
        "longitude": "121.540926",
        "city": "新北市"
    },
    {
        "restid": "930",
        "name": "Q Burger板橋僑中店",
        "address": "新北市板橋區僑中一街90號1樓",
        "phone": "02-82752908",
        "mobile": "",
        "latitude": "25.011759",
        "longitude": "121.447089",
        "city": "新北市"
    },
    {
        "restid": "931",
        "name": "Q Burger中山復興店",
        "address": "臺北市中山區復興北路514巷34號一樓",
        "phone": "02-25090565",
        "mobile": "",
        "latitude": "25.065888",
        "longitude": "121.542694",
        "city": "臺北市"
    },
    {
        "restid": "933",
        "name": "Q Burger松山民生店",
        "address": "臺北市松山區民生東路四段103號1樓",
        "phone": "02-25471072",
        "mobile": "",
        "latitude": "25.058167",
        "longitude": "121.552522",
        "city": "臺北市"
    },
    {
        "restid": "934",
        "name": "Q Burger板橋廣和店",
        "address": "新北市板橋區廣和街73號1樓",
        "phone": "02-29646679",
        "mobile": "",
        "latitude": "24.992666",
        "longitude": "121.462661",
        "city": "新北市"
    },
    {
        "restid": "935",
        "name": "Q Burger竹北三民店",
        "address": "新竹縣竹北市三民路318號",
        "phone": "03-5531233",
        "mobile": "",
        "latitude": "24.83451035",
        "longitude": "121.00949795",
        "city": "新竹縣"
    },
    {
        "restid": "936",
        "name": "Q Burger土城學成店",
        "address": "新北市土城區學成路47號",
        "phone": "02-82731862",
        "mobile": "",
        "latitude": "24.98748",
        "longitude": "121.452222",
        "city": "新北市"
    },
    {
        "restid": "937",
        "name": "Q Burger泰山泰高店",
        "address": "新北市泰山區明志路一段433號一樓",
        "phone": "02-22960737",
        "mobile": "",
        "latitude": "25.056481",
        "longitude": "121.43087",
        "city": "新北市"
    },
    {
        "restid": "948",
        "name": "Q Burger永和永貞店",
        "address": "新北市永和區永貞路355巷2號",
        "phone": "02-29262971",
        "mobile": "",
        "latitude": "25.007586",
        "longitude": "121.508985",
        "city": "新北市"
    },
    {
        "restid": "950",
        "name": "Q Burger文山景興店",
        "address": "臺北市文山區景興路99號",
        "phone": "02-29320217",
        "mobile": "",
        "latitude": "24.995334",
        "longitude": "121.544821",
        "city": "臺北市"
    },
    {
        "restid": "952",
        "name": "Q Burger新莊頭前店",
        "address": "新北市新莊區頭前里化成路319號",
        "phone": "02-85213381",
        "mobile": "",
        "latitude": "25.05574",
        "longitude": "121.46588",
        "city": "新北市"
    },
    {
        "restid": "953",
        "name": "Q Burger內湖達人店",
        "address": "臺北市內湖區內湖路二段326號",
        "phone": "02-27909865",
        "mobile": "",
        "latitude": "25.081544",
        "longitude": "121.588763",
        "city": "臺北市"
    },
    {
        "restid": "954",
        "name": "Q Burger土城員林店",
        "address": "新北市土城區員林街10之2號一樓",
        "phone": "02-82610003",
        "mobile": "",
        "latitude": "24.977884",
        "longitude": "121.442999",
        "city": "新北市"
    },
    {
        "restid": "955",
        "name": "Q Burger文山興隆店",
        "address": "臺北市文山區興隆路四段112號",
        "phone": "02-29371568",
        "mobile": "",
        "latitude": "24.983037",
        "longitude": "121.562082",
        "city": "臺北市"
    },
    {
        "restid": "970",
        "name": "Q Burger中和秀朗店",
        "address": "新北市中和區秀朗路三段48號1樓",
        "phone": "02-29222380",
        "mobile": "",
        "latitude": "24.995584",
        "longitude": "121.526366",
        "city": "新北市"
    },
    {
        "restid": "971",
        "name": "Q Burger板橋國光店",
        "address": "新北市板橋區國光路183號",
        "phone": "02-29684685",
        "mobile": "",
        "latitude": "25.018519",
        "longitude": "121.46092",
        "city": "新北市"
    },
    {
        "restid": "972",
        "name": "Q Burger林口中山店",
        "address": "新北市林口區中山路3號1樓",
        "phone": "02-26026033",
        "mobile": "",
        "latitude": "25.078023",
        "longitude": "121.396536",
        "city": "新北市"
    },
    {
        "restid": "973",
        "name": "Q Burger中和板南店",
        "address": "新北市中和區連城路219巷1號",
        "phone": "02-22466351",
        "mobile": "",
        "latitude": "24.997451",
        "longitude": "121.494542",
        "city": "新北市"
    },
    {
        "restid": "974",
        "name": "Q Burger三重頂崁店",
        "address": "新北市三重區頂崁街188號",
        "phone": "02-29843557",
        "mobile": "",
        "latitude": "25.066399",
        "longitude": "121.477416",
        "city": "新北市"
    },